ID Progetto,File,Indirizzo,Imprese,Valore Stimato,Latitudine,Longitudine
161802,DEFINITIVO LOMBARDIA PARTE 1 MAGGIO ,V.le Pavia   26900 Lodi ( LO ),Tecno Consulent srl; assegnato,25000000,45.3055443,9.4926605
178432,DEFINITIVO PIEMONTE MAGGIO ,Via Unità d'Italia  10126 Torino ( TO ),Consorzio San Luca srl; RICT Tauro sas di arch. Locandieri Marina e C.,30000000,45.0433566,7.6029227
185658,DEFINITIVO LOMBARDIA PARTE 1 MAGGIO ,Pza Cavour  22100 Como ( CO ),Mazzucchi Costruzioni srl,30000000,45.813221,9.0808269
186399,DEFINITIVO VENETO FINO A MAGGIO 2025,ex cartiera Galvani  31029 Vittorio Veneto ( TV ),Luma srl,5000000,45.987014,12.3012827
218728,DEFINITIVO LOMBARDIA PARTE 2 MAGGIO ,Via Francesco Sforza  20122 Milano ( MI ),ArCo Lavori s.coop.consortile; Consorzio Innova Società Cooperativa; Consorzio Stabile SIS Scpa; Palaser srl,165285000,45.4602971,9.1959989
221148,DEFINITIVO LOMBARDIA PARTE 2 MAGGIO ,Via Tofano 5  20153 Milano ( MI ),ICR Impianti e Costruzioni srl; SALC SpA Società Appalti Lavori e Costruzioni + SALC SpA Società Appalti Lavori e Costruzioni; integrato,16629000,45.4781045,9.0920123
222914,DEFINITIVO EMILIA ROMAGNA MAGGIO,Via Falconieri  48124 Ravenna ( RA ),ArCo Lavori s.coop.consortile,17390000,44.3994486,12.2001254
237767,DEFINITIVO LIGURIA MAGGIO 2025,Loc.Felettino  19126 La Spezia ( SP ),Guerrato SpA,160833000,44.131429,9.8434102
261299,DEFINITIVO LOMBARDIA PARTE 1 MAGGIO ,P.le Spedali Civili  25123 Brescia ( BS ),Consorzio Innova Società Cooperativa; Enrico Colombo SpA; Gianni Benvenuto SpA; assegnato; integrato,23461000,45.5547584,10.2325778
266808,DEFINITIVO LOMBARDIA PARTE 2 MAGGIO ,area ex Rosen Garden  22018 Porlezza ( CO ),Giardelli Costruzioni SpA; assegnato,6000000,46.0374519,9.1252814
272917,DEFINITIVO LIGURIA MAGGIO 2025,Loc. Erzelli  16152 Genova ( GE ),Capogruppo ATI; NBI SpA - Gruppo Astaldi,90000000,44.4258581,8.8629232
274886,DEFINITIVO EMILIA ROMAGNA MAGGIO,Via Ponente  40133 Bologna ( BO ),Impresa Percassi SpA,10000000,44.5084224,11.2990218
278571,DEFINITIVO LOMBARDIA PARTE 1 MAGGIO ,Via  delle Rogge  20089 Rozzano ( MI ),Archetipo srl; assegnato,7000000,45.37132,9.1469499
290025,DEFINITIVO LOMBARDIA PARTE 2 MAGGIO ,P.za dell'Ateneo Nuovo  20126 Milano ( MI ),CMC Cooperativa Muratori e Cementisti,43585000,45.5182577,9.2139043
291555,DEFINITIVO VENETO FINO A MAGGIO 2025,Via Anzio  37023 Grezzana ( VR ),CEA Coop Edile Appennino s.coop.rl,5100000,45.5158091,11.0196618
293160,DEFINITIVO VENETO FINO A MAGGIO 2025,Via Ciamber 1  32012 Val di Zoldo ( BL ),ITI Impresa Generale SpA; assegnato,4655000,46.3484708,12.1918949
293853,DEFINITIVO VENETO FINO A MAGGIO 2025,Loc.Riviera Paleocapa  35141 Padova ( PD ),ArCo Lavori s.coop.consortile; GeDi Group SpA; VF Costruzioni e Restauri Srl; assegnato; integrato; integrato aggiudicato al Consorzio,55793000,45.4017209,11.8674049
299804,DEFINITIVO PIEMONTE MAGGIO ,Area Avio-Oval  10126 Torino ( TO ),ABP Nocivelli SpA; Capogruppo ATI; Inc SpA; Sacyr S.A; Sipal SpA; assegnato,455959000,45.03954179999999,7.670644299999998
313694,DEFINITIVO TRENTINO FINO A MAGGIO 2025,Zona Gansplatzen  39044 Egna ( BZ ),Mak Costruzioni srl,1900000,46.3070976,11.2673189
322314,DEFINITIVO LOMBARDIA PARTE 2 MAGGIO ,P.za della Chiesa  23010 Gerola Alta ( SO ),Ruggiero Telecomunicazioni & Energia Srl,624000,46.0603517,9.5505675
322461,DEFINITIVO VENETO FINO A MAGGIO 2025,Via Meltar  36012 Asiago ( VI ),GVG SpA,1607000,45.8559694,11.5359654
324157,DEFINITIVO LOMBARDIA PARTE 2 MAGGIO ,P.za Banfi  20866 Carnate ( MB ),Proedil Costruzioni srl,1000000,45.6510066,9.3774893
326646,DEFINITIVO LOMBARDIA PARTE 1 MAGGIO ,P.le Trento  21100 Varese ( VA ),Edil Alta srl; ReseArch Consorzio Stabile scarl,13495000,45.8183805,8.8330992
335871,DEFINITIVO VENETO FINO A MAGGIO 2025,Via Selva Rosata 79  30021 Caorle ( VE ),Manelli Impresa Spa,20122000,45.5617946,12.7946751
336548,DEFINITIVO LOMBARDIA PARTE 1 MAGGIO ,Via General Biancardi   21052 Busto Arsizio ( VA ),Teicos UE srl; integrato,9200000,45.6159548,8.8579828
337356,DEFINITIVO EMILIA ROMAGNA MAGGIO,Via Copparo  44123 Ferrara ( FE ),Bruni Costruzioni; assegnato,18600000,44.846195,11.6523959
340404,DEFINITIVO LOMBARDIA PARTE 1 MAGGIO ,area ex Falck  20099 Sesto San Giovanni ( MI ),Edison Facility Solutions SpA; Inso SpA Sistemi per le Infrastrutture Sociali; Italiana Costruzioni SpA; Societa' Italiana Condotte d'Acqua SpA,450000000,45.5442494,9.2483073
353755,DEFINITIVO TRENTINO FINO A MAGGIO 2025,Loc. Madonna di Campiglio  38086 Pinzolo ( TN ),Pretti & Scalfi SpA,4996000,46.1597717,10.7651024
354036,DEFINITIVO TRENTINO FINO A MAGGIO 2025,Via Alto Adige  39100 Bolzano ( BZ ),CMB Coop.Muratori e Braccianti di Carpi srl,300000000,46.4963108,11.3551164
363618,DEFINITIVO VENETO FINO A MAGGIO 2025,Sestiere Dorsoduro 2209  30123 Venezia ( VE ),Errico Costruzioni srl,2046000,45.4343206,12.3258343
371374,DEFINITIVO VENETO FINO A MAGGIO 2025,Via del Giglio  35100 Padova ( PD ),San Lorenzo Invest srl,4800000,45.4365789,11.882154
373415,DEFINITIVO LOMBARDIA PARTE 2 MAGGIO ,Via Matteotti  21052 Busto Arsizio ( VA ),Notarimpresa SpA; integrato,4030000,45.6121229,8.8479705
373506,DEFINITIVO LIGURIA MAGGIO 2025,c/o Forte Begato  16159 Genova ( GE ),Capogruppo ATI; Cesag srl; integrato,4360000,44.438173,8.920739
378715,DEFINITIVO LIGURIA MAGGIO 2025,Via Queirolo  18018 Taggia ( IM ),R Costruzioni srl; assegnato,1500000,43.8310724,7.8506734
380412,DEFINITIVO PIEMONTE MAGGIO ,via Castelli  28922 Verbania ( VB ),Siteco scarl,4000000,45.9245534,8.5486021
381387,DEFINITIVO LOMBARDIA PARTE 1 MAGGIO ,V.le Emilio Golgi 19  27100 Pavia ( PV ),Omnia Servitia srl; assegnato; integrato,18390000,45.1833944,9.1548469
381799,DEFINITIVO VENETO FINO A MAGGIO 2025,via San Marco  35129 Padova ( PD ),Brenta Lavori srl,25000000,45.4200033,11.9335527
383117,DEFINITIVO LOMBARDIA PARTE 1 MAGGIO ,Loc.Masnago  21100 Varese ( VA ),Operazione srl,6988000,45.82987199999999,8.795022399999999
386443,DEFINITIVO TRENTINO FINO A MAGGIO 2025,Fr.Settequerce  39018 Terlano ( BZ ),Mastria Costruzioni srl,2741000,46.51140470000001,11.2661069
388353,DEFINITIVO PIEMONTE MAGGIO ,Via Bartolomeo Mana  10040 Druento ( TO ),Donizzetti 85 snc; assegnato,10000000,45.1288598,7.5744942
392683,DEFINITIVO LOMBARDIA PARTE 2 MAGGIO ,Area ex Expo  20157 Milano ( MI ),Renco SpA,416000000,45.514483,9.110102300000001
393762,DEFINITIVO PIEMONTE MAGGIO ,Via Verdi 18  10078 Venaria Reale ( TO ),Cobar SpA + Fiammengo Federico srl; integrato,1820000,45.1314151,7.6277211
395535,DEFINITIVO VENETO FINO A MAGGIO 2025,Via Gabelli  35121 Padova ( PD ),AHSI SpA; Capogruppo ATI,5804000,45.4053213,11.8854843
396702,DEFINITIVO LOMBARDIA PARTE 2 MAGGIO ,Via XXIV Maggio  24128 Bergamo ( BG ),Ferretti Casa SpA; assegnato,10000000,45.6960112,9.6523243
400172,DEFINITIVO PIEMONTE MAGGIO ,St. Misterletta  10040 Druento ( TO ),Promicasa srl + Promicasa srl; assegnato,4000000,45.1390322,7.5579479
402002,DEFINITIVO PIEMONTE MAGGIO ,C.so Francia 45  10100 Torino ( TO ),Nuova Siet SpA,2000000,45.0733691,7.600601699999999
403021,DEFINITIVO LOMBARDIA PARTE 1 MAGGIO ,Via Erodoto 4  20126 Milano ( MI ),Sapa Costruzioni srl,15000000,45.5090817,9.2222654
405651,DEFINITIVO LOMBARDIA PARTE 2 MAGGIO ,Via Cecilio 15  22100 Como ( CO ),Impresa Foti srl,5000000,45.7835945,9.068163900000002
406268,DEFINITIVO LOMBARDIA PARTE 1 MAGGIO ,C.so XXII Marzo 14  20135 Milano ( MI ),Grassi & Crespi srl,5000000,45.4619679,9.210127100000001
406995,DEFINITIVO LOMBARDIA PARTE 2 MAGGIO ,Via Verona  22063 Cantù ( CO ),EdilGrande srl,420000,45.7325557,9.1340352
407147,DEFINITIVO LIGURIA MAGGIO 2025,loc. Bolzaneto Valpolcevera  16162 Genova ( GE ),ITI Impresa Generale SpA,7877000,44.4546261,8.897758999999999
407299,DEFINITIVO VENETO FINO A MAGGIO 2025,via Verdi  35013 Cittadella ( PD ),Tiemme Costruzioni Edili SpA,5000000,45.643529,11.7828906
409086,DEFINITIVO PIEMONTE MAGGIO ,Via Venezia  10070 Robassomero ( TO ),Intercostruzioni SpA; assegnato,3000000,45.1960639,7.5696737
409306,DEFINITIVO EMILIA ROMAGNA MAGGIO,p.le Farini 21  48121 Ravenna ( RA ),CEAR Consorzio Edili Artigiani Ravenna Soc.; Safer srl; Stylcasa srl,4643000,44.4187463,12.205547
409332,DEFINITIVO LOMBARDIA PARTE 1 MAGGIO ,Via Di Vittorio-Via Cecilio  22100 Como ( CO ),Consorzio Stabile GECO General Contract; Paladino Costruzioni srl,6953000,45.7850225,9.0645551
410608,DEFINITIVO PIEMONTE MAGGIO ,Via Principi di Villafranca 4  10068 Villafranca Piemonte ( TO ),Capogruppo ATI; MIT srl,4500000,44.7833939,7.508184699999999
412054,DEFINITIVO LOMBARDIA PARTE 1 MAGGIO ,Via Monte Grappa  20812 Limbiate ( MB ),Consorzio Nazionale Coop.Produzione Lavoro Ciro,14360000,45.6116537,9.1242718
414116,DEFINITIVO TRENTINO FINO A MAGGIO 2025,Via Piave   38122 Trento ( TN ),Habitat SpA Impresa Costruzioni,23000000,46.0625814,11.1262839
414437,DEFINITIVO LOMBARDIA PARTE 1 MAGGIO ,Via Mosè Bianchi  20841 Carate Brianza ( MB ),Multi Manutenzione srl,2368000,45.7024974,9.2779206
414828,DEFINITIVO LOMBARDIA PARTE 2 MAGGIO ,Via Lorenteggio 181  20147 Milano ( MI ),ArCo Lavori s.coop.consortile,14447000,45.44790159999999,9.130645
415252,DEFINITIVO LIGURIA MAGGIO 2025,Zona Ambito R14  17019 Varazze ( SV ),La Piana Costruzioni srl; assegnato,10000000,44.359405,8.577279500000001
416348,DEFINITIVO LOMBARDIA PARTE 1 MAGGIO ,Via Quadrio  20025 Legnano ( MI ),Cozzi Costruzioni srl,4500000,45.5916411,8.9070091
416425,DEFINITIVO PIEMONTE MAGGIO ,Str. Castelvecchio  10024 Moncalieri ( TO ),Sinfonia Costruzioni srl,2000000,45.0075266,7.7028055
417201,DEFINITIVO PIEMONTE MAGGIO ,Via Vernante  12100 Cuneo ( CN ),Effettotetto snc; assegnato,1200000,44.3635511,7.5235391
417532,DEFINITIVO LOMBARDIA PARTE 2 MAGGIO ,Via Dante Alighieri  21010 Golasecca ( VA ),Impresa Ielmini Felice srl; assegnato,2000000,45.7038285,8.664906
419153,DEFINITIVO VENETO FINO A MAGGIO 2025,loc. Ca' Oddo  35043 Monselice ( PD ),Foen sas di Morato geom. Giovanni & C.,450000,45.2280798,11.7453673
420104,DEFINITIVO PIEMONTE MAGGIO ,P.za XVIII Dicembre  10121 Torino ( TO ),Gruppo Dimensione SpA,15000000,45.0736907,7.6683459
420605,DEFINITIVO LOMBARDIA PARTE 1 MAGGIO ,Via Giuffrè 8  20159 Milano ( MI ),Capogruppo ATI; Edil Isotermo srl,7004000,45.4972978,9.1899608
422781,DEFINITIVO PIEMONTE MAGGIO ,Via Nino Bixio  12051 Alba ( CN ),Taricco Costruzioni srl; assegnato,3500000,44.7031886,8.0366779
423819,DEFINITIVO PIEMONTE MAGGIO ,Via Bacchiasso  10051 Avigliana ( TO ),Vanzetti Costruzioni srl; assegnato,3000000,45.0741297,7.4131289
425282,DEFINITIVO LOMBARDIA PARTE 2 MAGGIO ,V.le Europa  27055 Rivanazzano Terme ( PV ),Casearroli srl; assegnato,8000000,44.9359913,9.0130456
425973,DEFINITIVO LOMBARDIA PARTE 1 MAGGIO ,C.so Europa 250  20017 Rho ( MI ),Capogruppo ATI,3690000,45.53364819999999,9.033947099999999
426026,DEFINITIVO PIEMONTE MAGGIO ,Loc.Vocogno  28852 Craveggia ( VB ),UNYCA srl,7600000,46.1406318,8.4831209
428128,DEFINITIVO LOMBARDIA PARTE 1 MAGGIO ,Via Pestalozzi 18  20143 Milano ( MI ),Impresa Edile Mariani srl,15000000,45.4453091,9.1550683
428807,DEFINITIVO LOMBARDIA PARTE 1 MAGGIO ,Via Giambellino 150  20147 Milano ( MI ),ArCo Lavori s.coop.consortile; Paolo Beltrami Costruzioni SpA,5235000,45.4447783,9.1297961
429003,DEFINITIVO LOMBARDIA PARTE 1 MAGGIO ,Loc.Linate  20090 Milano ( MI ),3Emmegi SpA; Capogruppo ATI; Nuova CCS Srl; SaPro Edil Restauri 85 Srl; assegnato; integrato; integrato aggiudicato a favore delle imprese,13375000,45.4451354,9.2720947
430931,DEFINITIVO VENETO FINO A MAGGIO 2025,Via delle Melette  35138 Padova ( PD ),Prearo Costruzioni,5000000,45.4095551,11.8607794
433170,DEFINITIVO LOMBARDIA PARTE 1 MAGGIO ,Via Fetonte  20151 Milano ( MI ),ImpreDo SpA,50000000,45.483447,9.1229924
434877,DEFINITIVO LOMBARDIA PARTE 1 MAGGIO ,Via Bolla 38-42  20151 Milano ( MI ),"Capogruppo ATI; Sitalcea srl; assegnato; integrato, comprensivo di servizio di coordinamento della",16946000,45.503896,9.1069014
435310,DEFINITIVO PIEMONTE MAGGIO ,via C.Ramo  10090 Buttigliera Alta ( TO ),MIRO srl Costruzioni Edili,3500000,45.0823375,7.4266597
435599,DEFINITIVO LOMBARDIA PARTE 2 MAGGIO ,Via Ferdinando Magellano  20861 Brugherio ( MB ),Devero Costruzioni SpA,12000000,45.5407774,9.3063913
436836,DEFINITIVO EMILIA ROMAGNA MAGGIO,Via Castelfidardo 56  41049 Sassuolo ( MO ),Edilcosti; assegnato,1050000,44.5443016,10.7743804
436951,DEFINITIVO LOMBARDIA PARTE 2 MAGGIO ,Via Pietro Nenni 20  20056 Trezzo sull'Adda ( MI ),Elleterm Energy srl,3804000,45.61452560000001,9.506566
437464,DEFINITIVO PIEMONTE MAGGIO ,Via XXIV Maggio 20  28921 Verbania ( VB ),Frua Immobiliare srl,2000000,45.9413754,8.5614394
438531,DEFINITIVO VENETO FINO A MAGGIO 2025,Str. Madonna Marina  30015 Chioggia ( VE ),Dicataldo Sabino; assegnato,1767000,45.2030899,12.2872742
439040,DEFINITIVO VENETO FINO A MAGGIO 2025,Via R. Menaldi  32043 Cortina d'Ampezzo ( BL ),Carron SpA,7000000,46.5378431,12.1358821
440953,DEFINITIVO LOMBARDIA PARTE 1 MAGGIO ,Via Brera 19  20121 Milano ( MI ),Infrastrutture srl,20000000,45.4717221,9.1871893
442902,DEFINITIVO VENETO FINO A MAGGIO 2025,Via Brigata Bisagno 4  31015 Conegliano ( TV ),Eurosaf srl; Infratech Consorzio Stabile scarl,43823000,45.8816625,12.290304
443130,DEFINITIVO LOMBARDIA PARTE 1 MAGGIO ,Via Lorenteggio 179  20147 Milano ( MI ),ArCo Lavori s.coop.consortile; Paolo Beltrami Costruzioni SpA,13459000,45.4484151,9.1323856
443131,DEFINITIVO LOMBARDIA PARTE 2 MAGGIO ,Via Manzano 4  20147 Milano ( MI ),Capogruppo ATI; SCS società cooperativa,9308000,45.4466099,9.1290335
443408,DEFINITIVO LOMBARDIA PARTE 1 MAGGIO ,Loc.Maguzzano  25017 Lonato del Garda ( BS ),DISMA srl Demolizioni Industriali Strade Manufatti,341000,45.4859645,10.5022924
443862,DEFINITIVO VENETO FINO A MAGGIO 2025,Via T.Aspetti 259  35134 Padova ( PD ),Cons. Stabile Conpat scarl; GeDi Group SpA; Taddei Spa,4800000,45.4297674,11.8880823
445180,DEFINITIVO VENETO FINO A MAGGIO 2025,Via Casa di Ricovero 40  35013 Cittadella ( PD ),Alfredo Cecchini Srl; Capogruppo ATI; Gruppo ECF SpA; TSB srl; integrato,34213000,45.64594959999999,11.7861048
445445,DEFINITIVO LOMBARDIA PARTE 1 MAGGIO ,Via Anfiteatro 7  20121 Milano ( MI ),Masi Group srl,4500000,45.4743475,9.182671
445621,DEFINITIVO LOMBARDIA PARTE 1 MAGGIO ,Via Verdi  26020 Agnadello ( CR ),Domus Costruzioni srl,2000000,45.4418093,9.5626392
445991,DEFINITIVO VENETO FINO A MAGGIO 2025,Cannaregio 2292  30121 Venezia ( VE ),Ricci SpA,15000000,45.4463626,12.3304767
446522,DEFINITIVO PIEMONTE MAGGIO ,C.so Bagni  15011 Acqui Terme ( AL ),Costruzioni Imm.re Piemonte srl; assegnato,3500000,44.6704051,8.4687066
446881,DEFINITIVO PIEMONTE MAGGIO ,Via Venaria  10093 Collegno ( TO ),Met srl,25000000,45.0918859,7.5732355
446974,DEFINITIVO PIEMONTE MAGGIO ,via Pisa 38  10152 Torino ( TO ),Perino Piero srl,35000000,45.0757341,7.6940428
447227,DEFINITIVO EMILIA ROMAGNA MAGGIO,Via Bergamo  47838 Riccione ( RN ),I Platani srl; integrato aggiudicato all'impresa segnalata che ha indicato i,4497000,43.99267,12.6623023
447291,DEFINITIVO PIEMONTE MAGGIO ,Via Coppino 26  12100 Cuneo ( CN ),MIT srl,5652000,44.3854942,7.536607200000001
447604,DEFINITIVO PIEMONTE MAGGIO ,Via del Molino  10045 Piossasco ( TO ),ICR Costruzioni srl; assegnato,2500000,44.9863552,7.4624815
448261,DEFINITIVO PIEMONTE MAGGIO ,via don Orione  12042 Bra ( CN ),Mondavi Costruzioni Bra,6000000,44.7141578,7.8318533
448284,DEFINITIVO PIEMONTE MAGGIO ,P.za Mafalda di Savoia  10098 Rivoli ( TO ),Capogruppo ATI; MIT srl; integrato,6388000,45.0701441,7.5101144
448343,DEFINITIVO LOMBARDIA PARTE 1 MAGGIO ,Via Comelli  24058 Romano di Lombardia ( BG ),Cortesi Costruzioni srl,4200000,45.5217732,9.752745899999999
448515,DEFINITIVO PIEMONTE MAGGIO ,Via N. Bixio 1  10043 Orbassano ( TO ),Martignon Costruzioni di Martignon Gabriele sas; assegnato,600000,45.00893079999999,7.5387621
449507,DEFINITIVO LOMBARDIA PARTE 1 MAGGIO ,Via Trieste  21020 Buguggiate ( VA ),Gabri Luigi sas di Alessandro Gabri Gabricasa,8000000,45.7855318,8.809057
449737,DEFINITIVO EMILIA ROMAGNA MAGGIO,Via dell'Agricoltura  48123 Ravenna ( RA ),Epi srl; assegnato,10000000,44.4352094,12.1982337
449813,DEFINITIVO VENETO FINO A MAGGIO 2025,C.so Australia  35136 Padova ( PD ),Brenta Lavori srl; Elettro TC srl; Suardi SpA; assegnato,32920000,45.4171504,11.8544031
449865,DEFINITIVO PIEMONTE MAGGIO ,Via Ospedale 72  12010 Entracque ( CN ),Cornaglia Fratelli srl,1288000,44.2382582,7.3972256
451195,DEFINITIVO LOMBARDIA PARTE 1 MAGGIO ,Via Caudana 4  26100 Cremona ( CR ),CREAMI srl; assegnato,410000,45.1428915,10.0727239
451476,DEFINITIVO LOMBARDIA PARTE 2 MAGGIO ,Via Kennedy 2  26900 Lodi ( LO ),Impresa Edile FAC srl; aggiudicato a favore; assegnato,377000,45.303961,9.4973061
451747,DEFINITIVO LOMBARDIA PARTE 1 MAGGIO ,V.le Jenner 24  20158 Milano ( MI ),De Martino Costruzioni srl,4000000,45.49741299999999,9.1807251
451770,DEFINITIVO LOMBARDIA PARTE 1 MAGGIO ,Via Passerini 13  20162 Milano ( MI ),Edilvit srl,10000000,45.5152095,9.1924221
451850,DEFINITIVO EMILIA ROMAGNA MAGGIO,V.le d'Annunzio  47838 Riccione ( RN ),Orlandi Maurizio srl,10000000,44.0127458,12.6465316
451922,DEFINITIVO EMILIA ROMAGNA MAGGIO,Via della Beverara  40131 Bologna ( BO ),ITI Impresa Generale SpA; aggiudicato all'impresa segnalata che ha; assegnato,7546000,44.5175076,11.3311626
452180,DEFINITIVO LOMBARDIA PARTE 1 MAGGIO ,P.zza IV Novembre  20053 Rodano ( MI ),Capogruppo ATI; Consorzio Stabile Costruendo srl; De Rose Service srl,4366000,45.4764049,9.3557543
452249,DEFINITIVO LOMBARDIA PARTE 1 MAGGIO ,Via Ciotti  25018 Montichiari ( BS ),TF Costruzioni srl,3143000,45.412406,10.4024836
452699,DEFINITIVO VENETO FINO A MAGGIO 2025,V.le Piave  37135 Verona ( VR ),5D Costruzioni srl; assegnato,21000000,45.4269915,10.9860288
452821,DEFINITIVO LOMBARDIA PARTE 2 MAGGIO ,Via Viarana  20842 Besana in Brianza ( MB ),Multi Manutenzione srl,855000,45.7001384,9.2865266
452829,DEFINITIVO LOMBARDIA PARTE 1 MAGGIO ,Via Roma 85  20865 Usmate Velate ( MB ),Multi Manutenzione srl; integrato,778000,45.6558289,9.3698695
453271,DEFINITIVO EMILIA ROMAGNA MAGGIO,Via Emilia  40064 Ozzano dell'Emilia ( BO ),Futura Costruzioni srl,10000000,44.4439504,11.478654
454237,DEFINITIVO EMILIA ROMAGNA MAGGIO,via Matteotti  41039 San Possidonio ( MO ),Emiliana Scavi srl,5000000,44.8746366,10.9819875
454239,DEFINITIVO EMILIA ROMAGNA MAGGIO,Via Ghiarella  41042 Fiorano Modenese ( MO ),Research Consorzio Stabile scarl; assegnato; integrato aggiudicato al Consorzio,1750000,44.5303883,10.8387604
454307,DEFINITIVO EMILIA ROMAGNA MAGGIO,Via S.Eufemia 25  41121 Modena ( MO ),AEC Costruzioni srl,10000000,44.6469567,10.9237794
454717,DEFINITIVO PIEMONTE MAGGIO ,P.za Europa  12100 Cuneo ( CN ),Barra Costruzioni srl,3000000,44.384053,7.5413579
454879,DEFINITIVO PIEMONTE MAGGIO ,V.le Dante Alighieri 21  28100 Novara ( NO ),Notarimpresa SpA; assegnato,4000000,45.4496956,8.6162723
455789,DEFINITIVO EMILIA ROMAGNA MAGGIO,Via Costa 106  47822 Santarcangelo di Romagna ( RN ),Zanon Prefabbricati,5000000,44.0686715,12.4332105
456600,DEFINITIVO PIEMONTE MAGGIO ,Lungolago  28838 Stresa ( VB ),Bertini srl,55000000,45.8880978,8.5320392
456942,DEFINITIVO LOMBARDIA PARTE 1 MAGGIO ,Via Manara  20900 Monza ( MB ),Edilvit srl + Edilvit srl; assegnato,12800000,45.5893832,9.2601881
457040,DEFINITIVO LOMBARDIA PARTE 2 MAGGIO ,Via delle Rose  20072 Pieve Emanuele ( MI ),Capogruppo ATI; DP Costruzioni srl; assegnato,5748000,45.3410142,9.1878144
457187,DEFINITIVO TRENTINO FINO A MAGGIO 2025,Via Antonio Pacinotti  39100 Bolzano ( BZ ),Habitat SpA Impresa Costruzioni; assegnato,1000000,46.4827162,11.3313806
457918,DEFINITIVO PIEMONTE MAGGIO ,Via Beppe Fenoglio  14053 Canelli ( AT ),Olivieri Costruzioni Generali srl; assegnato,1200000,44.7262369,8.3000168
458211,DEFINITIVO LOMBARDIA PARTE 1 MAGGIO ,Scalo Porta Romana   20139 Milano ( MI ),CCL Consorzio Coop Lavoratori; CEV SpA; Fondamenta SpA; Grassi & Crespi srl,50000000,45.4457871,9.205964999999999
458776,DEFINITIVO LOMBARDIA PARTE 1 MAGGIO ,V.le Suzzani 96  20162 Milano ( MI ),Proedil srl,20000000,45.5130265,9.2019324
458888,DEFINITIVO LOMBARDIA PARTE 1 MAGGIO ,Ex S.S.11  20011 Corbetta ( MI ),MAPE Costruzioni Edili srl,7000000,45.48045519999999,8.9415893
459380,DEFINITIVO PIEMONTE MAGGIO ,Via Bergamo  10036 Settimo Torinese ( TO ),Bonarrigo Costruzioni srl,1800000,45.1502372,7.7826872
459391,DEFINITIVO LOMBARDIA PARTE 1 MAGGIO ,Via Santa Margherita  20861 Brugherio ( MB ),Staff Costruzioni srl,5000000,45.5608559,9.3097373
459429,DEFINITIVO PIEMONTE MAGGIO ,Via Giuseppe Verdi 9  10124 Torino ( TO ),Alma CIS srl; Capogruppo ATI; Consorzio San Luca srl,3000000,45.0700748,7.689665300000001
459540,DEFINITIVO VENETO FINO A MAGGIO 2025,Via Cavour  35020 Ponte San Nicolò ( PD ),Galiazzo Fratelli Costruzioni srl,1500000,45.3640416,11.9099118
459556,DEFINITIVO TRENTINO FINO A MAGGIO 2025,Via Dante 27  39031 Brunico ( BZ ),Elpo srl; Schmidhammer srl; Unionbau SpA + Wipptaler Bau SpA,9029000,46.7985767,11.9483053
459789,DEFINITIVO LOMBARDIA PARTE 1 MAGGIO ,C.so di Porta Ticinese 32  20123 Milano ( MI ),Gruppo Building  SpA,5000000,45.457978,9.1807232
460164,DEFINITIVO LOMBARDIA PARTE 1 MAGGIO ,P.za del Collegio Borromeo  27100 Pavia ( PV ),Damiani Costruzioni srl,6000000,45.1800969,9.1604279
460271,DEFINITIVO PIEMONTE MAGGIO ,via Almellina  12015 Limone Piemonte ( CN ),Fantino Costruzioni SpA,5600000,44.2002714,7.5870494
460299,DEFINITIVO PIEMONTE MAGGIO ,C.so Italia  10040 Piobesi Torinese ( TO ),SGM Edile srl,350000,44.9280717,7.608298
460721,DEFINITIVO PIEMONTE MAGGIO ,Via Verbano  28100 Novara ( NO ),Centauro Group; assegnato,4000000,45.4776045,8.6285092
460962,DEFINITIVO LOMBARDIA PARTE 1 MAGGIO ,Via Rovello 14  20121 Milano ( MI ),SMV Costruzioni srl,15000000,45.46773049999999,9.1840681
461433,DEFINITIVO EMILIA ROMAGNA MAGGIO,Via C. Breveglieri 2/2  44042 Cento ( FE ),Attiva Costruzioni srl; Cires Società Cooperativa; Consorzio Integra Società Cooperativa,1644000,44.7306825,11.2910966
461520,DEFINITIVO VENETO FINO A MAGGIO 2025,Via Bartolomeo da Breganze  36100 Vicenza ( VI ),Capogruppo ATI; ISI Industria Serramenti Italiana Srl; TSB srl,6515000,45.5690112,11.5410241
461893,DEFINITIVO LOMBARDIA PARTE 1 MAGGIO ,P.za Battisti 85  46024 Moglia ( MN ),Capogruppo ATI; SIME Restauri srl; Selva Mercurio srl,1411000,44.9601894,10.9487866
462518,DEFINITIVO LOMBARDIA PARTE 1 MAGGIO ,Via Monte Cervino  20861 Brugherio ( MB ),Devero Costruzioni SpA,6400000,45.5523275,9.2794103
462603,DEFINITIVO TRENTINO FINO A MAGGIO 2025,P.za Righi  38086 Pinzolo ( TN ),Pavoni SpA,1600000,46.2307443,10.8265439
463290,DEFINITIVO VENETO FINO A MAGGIO 2025,Via San Giovanni Lupatoto  37134 Verona ( VR ),Veco Costruzioni srl,2500000,45.4129873,10.9982733
463304,DEFINITIVO LOMBARDIA PARTE 2 MAGGIO ,Via Cartesio  20015 Parabiago ( MI ),Arcos 93 srl; assegnato,800000,45.5488699,8.9441859
463380,DEFINITIVO LOMBARDIA PARTE 1 MAGGIO ,Loc. Portiolo  46027 San Benedetto Po ( MN ),MarSal Restauri srl,3198000,45.0473456,10.8598478
463397,DEFINITIVO EMILIA ROMAGNA MAGGIO,Via Cappella 109  41053 Maranello ( MO ),CME Consorzio Imprenditori Edili s.coop.,602000,44.50715960000001,10.8729908
463483,DEFINITIVO TRENTINO FINO A MAGGIO 2025,Via Prack Zu Asch 1  39031 Brunico ( BZ ),Unionbau SpA,5640000,46.777062,11.9474214
463501,DEFINITIVO LIGURIA MAGGIO 2025,L.go Rosanna Benzi 10  16132 Genova ( GE ),ArCo Lavori s.coop.consortile; Capogruppo ATI; Euroimpianti SpA,45000000,44.4085087,8.972662099999999
463831,DEFINITIVO VENETO FINO A MAGGIO 2025,fr.Sandrà  37014 Castelnuovo del Garda ( VR ),Impresa Rigo srl,400000,45.43844259999999,10.7606996
463902,DEFINITIVO PIEMONTE MAGGIO ,Via San Massimo   10040 Rivalta di Torino ( TO ),Morabito Costruzioni; assegnato,4000000,45.0241452,7.5241293
463961,DEFINITIVO EMILIA ROMAGNA MAGGIO,Via del Municipio 2  47028 Verghereto ( FC ),Baglioni srl,1731000,43.79529,12.00567
463996,DEFINITIVO LOMBARDIA PARTE 2 MAGGIO ,Via Alberico da Barbiano  20161 Milano ( MI ),AEP Attività Edilizie Pavesi SpA,10000000,45.5298617,9.1727932
464092,DEFINITIVO EMILIA ROMAGNA MAGGIO,Via Montevecchio  47921 Rimini ( RN ),Venturelli Romolo Srl,4237000,44.0053215,12.5549224
464506,DEFINITIVO LOMBARDIA PARTE 1 MAGGIO ,Via Cairoli 4-16  21100 Varese ( VA ),Capogruppo ATI; Devi Impianti srl; assegnato; assegnato alla RTI indicata,3270000,45.8213875,8.8335797
464512,DEFINITIVO LOMBARDIA PARTE 1 MAGGIO ,Via Monte San Genesio 8  20158 Milano ( MI ),Lasema Costruzioni srl,7000000,45.5007606,9.181592
464809,DEFINITIVO LOMBARDIA PARTE 1 MAGGIO ,Via Sforza 8  20122 Milano ( MI ),Capogruppo ATI; Eurosistemi srl; Martino srl,9212000,45.46278410000001,9.1981988
464989,DEFINITIVO VENETO FINO A MAGGIO 2025,Via Tinto  30174 Venezia ( VE ),Suninvest SpA,9000000,45.5107111,12.2447528
465703,DEFINITIVO PIEMONTE MAGGIO ,Via S.Maria  12030 Lagnasco ( CN ),Edil Costruzioni srl; assegnato,1200000,44.6255107,7.551994
466004,DEFINITIVO TRENTINO FINO A MAGGIO 2025,Via Paul 9  39047 Santa Cristina Valgardena ( BZ ),Lageder Bau GmbH,1560000,46.55875109999999,11.7158375
466141,DEFINITIVO VENETO FINO A MAGGIO 2025,Via Alfredo Catalani  36071 Arzignano ( VI ),Edilcostruzioni di Callegaro & Zuffellato srl,300000,45.5217777,11.3355291
466728,DEFINITIVO LOMBARDIA PARTE 1 MAGGIO ,Via Sanchioli  20013 Magenta ( MI ),MAPE Costruzioni Edili srl,5000000,45.46481989999999,8.8906983
467331,DEFINITIVO PIEMONTE MAGGIO ,Via Cavalieri  28070 Sizzano ( NO ),GT Costruzioni srls,10000000,45.5754365,8.435911299999999
467380,DEFINITIVO LOMBARDIA PARTE 2 MAGGIO ,Via Eligio Brigatti 50  20885 Ronco Briantino ( MB ),Valsecchi Costruzioni srl; assegnato,2000000,45.6652528,9.4096581
467679,DEFINITIVO EMILIA ROMAGNA MAGGIO,via Marco Polo  44123 Modena ( MO ),Consorzio Innova Società Cooperativa; VF Costruzioni e Restauri Srl,7000000,44.6555389,10.8989766
467748,DEFINITIVO LOMBARDIA PARTE 2 MAGGIO ,Via Sant’Erlembaldo 2  20127 Milano ( MI ),Capogruppo ATI; CreaMi srl; Paladino Costruzioni srl; aggiudicato a favore della; assegnato,11937000,45.5058313,9.2221993
468048,DEFINITIVO LOMBARDIA PARTE 1 MAGGIO ,Via Giovanni Boccaccio 145  20099 Sesto San Giovanni ( MI ),LDB Costruzioni SpA; assegnato,2500000,45.5430119,9.2368002
468109,DEFINITIVO VENETO FINO A MAGGIO 2025,Via Don Lorenzo Milani  35020 Arzergrande ( PD ),Edil Ciemme srl,600000,45.2749243,12.0754167
468342,DEFINITIVO PIEMONTE MAGGIO ,Str. Profonda  12051 Alba ( CN ),Domus sas,1250000,44.6850837,8.0364157
468644,DEFINITIVO LOMBARDIA PARTE 1 MAGGIO ,Via alle Fonti   24038 Sant'Omobono Terme ( BG ),Piramide srl,1098000,45.8250709,9.511224
468912,DEFINITIVO LOMBARDIA PARTE 1 MAGGIO ,Via Rizzoli  20132 Milano ( MI ),ATS Costruzioni Generali srl; integrato,14000000,45.5081971,9.2549788
469010,DEFINITIVO VENETO FINO A MAGGIO 2025,Via Valeri  35131 Padova ( PD ),Consorzio Stabile Pedron Costruzioni Generali; assegnato,10000000,45.4148775,11.8811874
469121,DEFINITIVO PIEMONTE MAGGIO ,Via C.L.N.   10095 Grugliasco ( TO ),Cogeor srl; assegnato,5000000,45.0675383,7.5679174
469193,DEFINITIVO TRENTINO FINO A MAGGIO 2025,Via Vintler  39100 Bolzano ( BZ ),Se Cos Due srl,2800000,46.5011719,11.3555315
469495,DEFINITIVO VENETO FINO A MAGGIO 2025,Via Cardinale Urbani  30174 Venezia ( VE ),Setten Genesio SpA; assegnato,10182000,45.4944681,12.2113717
469971,DEFINITIVO LOMBARDIA PARTE 2 MAGGIO ,Via Madonnina  20021 Bollate ( MI ),(nominativo al momento non dichiarato) + Albini e Castelli srl,30000000,45.5394299,9.1078121
469977,DEFINITIVO EMILIA ROMAGNA MAGGIO,Via Nonantolana 221  41122 Modena ( MO ),ArCo Lavori s.coop.consortile; VF Costruzioni e Restauri Srl + Scientia srl,3174000,44.6542744,10.9396493
470153,DEFINITIVO PIEMONTE MAGGIO ,C.so Goffredo Mameli 153  28921 Verbania ( VB ),Seven srl; assegnato,1200000,45.9362364,8.575873699999999
470256,DEFINITIVO PIEMONTE MAGGIO ,Via Druento  10044 Pianezza ( TO ),Neglia Costruzioni srl,4000000,45.1118731,7.5596479
470288,DEFINITIVO LOMBARDIA PARTE 2 MAGGIO ,Via Ciria 6  26100 Cremona ( CR ),Edil Service srl; assegnato,2504000,45.131954,10.0023799
470760,DEFINITIVO LOMBARDIA PARTE 1 MAGGIO ,Via Bistolfi 31  20134 Milano ( MI ),Borio Mangiarotti SpA,55000000,45.4750688,9.244108899999999
470959,DEFINITIVO LOMBARDIA PARTE 1 MAGGIO ,Via Molinetto 9  20063 Cernusco sul Naviglio ( MI ),CZ Costruzioni srl,4000000,45.517058,9.3189304
471634,DEFINITIVO LOMBARDIA PARTE 1 MAGGIO ,Via Cavriana 15  20134 Milano ( MI ),BNG srls; Coccia Costruzioni srl; Consorzio Idea Group,6000000,45.4665838,9.2404776
471961,DEFINITIVO LOMBARDIA PARTE 2 MAGGIO ,P.le Lorenzo Lotto 15  20122 Milano ( MI ),Constructora San Josè sa; Go Fit Life Science and Technology sa,24177000,45.4818562,9.141136
472222,DEFINITIVO TRENTINO FINO A MAGGIO 2025,Via Castel Flavon 5  39100 Bolzano ( BZ ),Dalle Nogare Costruzioni srl,2500000,46.4886044,11.3484601
472695,DEFINITIVO EMILIA ROMAGNA MAGGIO,Via C.Battisti 56  47021 Bagno di Romagna ( FC ),Conscoop - Cons. Cooperative Produzione e Lavoro; Edilcasa Soc.Coop,416000,43.8548621,11.9762618
474452,DEFINITIVO LOMBARDIA PARTE 2 MAGGIO ,Via Aeroporto  24050 Orio al Serio ( BG ),Gencantieri SpA,30000000,45.6646198,9.7024653
474815,DEFINITIVO LOMBARDIA PARTE 1 MAGGIO ,V.le Melchiorre Gioia 124  20125 Milano ( MI ),Ecotek Bonifiche srl; Lupini F.lli srl,5000000,45.4934488,9.2060357
474845,DEFINITIVO PIEMONTE MAGGIO ,Via Pisa 18  10152 Torino ( TO ),Fiammengo Federico srl,3000000,45.0782151,7.6917613
474849,DEFINITIVO PIEMONTE MAGGIO ,Via Langrage 35  10123 Torino ( TO ),Primula Costruzioni srl,2000000,45.0645345,7.681906100000001
474884,DEFINITIVO PIEMONTE MAGGIO ,via Don Orione  12042 Bra ( CN ),Mondavi Costruzioni Bra; assegnato,1500000,44.7141578,7.8318533
474933,DEFINITIVO LOMBARDIA PARTE 1 MAGGIO ,P.za Ospedale 3  24050 Calcinate ( BG ),Impresa Ravelli srl,1463000,45.6197399,9.7986876
474942,DEFINITIVO LOMBARDIA PARTE 1 MAGGIO ,Via Mozart  46042 Castel Goffredo ( MN ),Cappellari Costruzioni srl,1000000,45.2924434,10.4794836
475160,DEFINITIVO LOMBARDIA PARTE 1 MAGGIO ,Via Piave  20900 Monza ( MB ),Impresa Ing Galbiati SpA,5500000,45.5762472,9.2772767
475177,DEFINITIVO LOMBARDIA PARTE 1 MAGGIO ,Via Acciaierie  20099 Sesto San Giovanni ( MI ),CMB Coop.Muratori e Braccianti di Carpi srl; Colombo Costruzioni SpA,80000000,45.53895,9.2389206
475267,DEFINITIVO VENETO FINO A MAGGIO 2025,Via Col Molin  36060 Romano d'Ezzelino ( VI ),Torresan snc di Torresan Giacomo,200000,45.7941606,11.7614768
475286,DEFINITIVO VENETO FINO A MAGGIO 2025,Via dei Mille 32  36100 Vicenza ( VI ),MACO Group srl,400000,45.5450151,11.5317693
476005,DEFINITIVO LOMBARDIA PARTE 1 MAGGIO ,Via Marconi  24021 Albino ( BG ),Bergamelli srl; Cortinovis Costruzioni srl + Immobilter srl,3500000,45.7562159,9.7885994
476035,DEFINITIVO EMILIA ROMAGNA MAGGIO,Loc. Castelguelfo  43010 Fontevivo ( PR ),Scaramuzza Fabrizio srl,2000000,44.825244,10.211905
476167,DEFINITIVO LIGURIA MAGGIO 2025,Via Novella  16157 Genova ( GE ),CoGesi srl,1500000,44.4348793,8.7706674
476827,DEFINITIVO LOMBARDIA PARTE 1 MAGGIO ,Via Valdipado  26100 Cremona ( CR ),Devi Impianti srl,2062000,45.1327464,10.0013682
476828,DEFINITIVO LOMBARDIA PARTE 1 MAGGIO ,Via Vecchia 7  26100 Cremona ( CR ),Capogruppo ATI,917000,45.1305948,10.0141373
477671,DEFINITIVO EMILIA ROMAGNA MAGGIO,Via Canaletto  41124 Modena ( MO ),ITI Impresa Generale SpA; assegnato; integrato,3370000,44.6569468,10.9323436
477823,DEFINITIVO PIEMONTE MAGGIO ,Area ex campo base TAV  28100 Novara ( NO ),MIT srl,10763000,45.4467749,8.6168696
477828,DEFINITIVO PIEMONTE MAGGIO ,Area ex Campo Base TAV  28100 Novara ( NO ),Capogruppo ATI; Dussmann Service Italia,13100000,45.4467749,8.6168696
477844,DEFINITIVO EMILIA ROMAGNA MAGGIO,Via del Pozzo 71  41125 Modena ( MO ),ArCo Lavori s.coop.consortile; Enrico Colombo SpA; Seli Manutenzioni Generali Srl; assegnato; integrato; integrato aggiudicato al Consorzio segnalato,7348000,44.6337349,10.9419683
477856,DEFINITIVO LIGURIA MAGGIO 2025,via Balbi 9  16126 Genova ( GE ),Cosmo Costruzioni Moderne srl,4151000,44.4162124,8.9238339
477987,DEFINITIVO LOMBARDIA PARTE 2 MAGGIO ,P.le Visconti  24127 Bergamo ( BG ),ArCo Lavori s.coop.consortile; Hana srl + Benis Costruzioni srl; Capogruppo ATI,6803000,45.6803126,9.6434087
478145,DEFINITIVO VENETO FINO A MAGGIO 2025,Via Cavour  30014 Cavarzere ( VE ),Capogruppo ATI; Erre Costruzioni srl; Sogedico srl; integrato; integrato aggiudicato alle imprese segnalate riunite in ATI.,1965000,45.1399718,12.085654
478167,DEFINITIVO LOMBARDIA PARTE 1 MAGGIO ,Via Newton 15  20148 Milano ( MI ),ATS Costruzioni Generali srl,3950000,45.4738309,9.1321099
478182,DEFINITIVO LOMBARDIA PARTE 2 MAGGIO ,Via Paravia  20148 Milano ( MI ),IMG srl,2367000,45.4723215,9.1323089
478191,DEFINITIVO LOMBARDIA PARTE 1 MAGGIO ,Q.re Niguarda  20162 Milano ( MI ),Cosbotek srl; aggiudicato con sottoscrizione di accordo quadro.; assegnato,2397000,45.5230155,9.191578699999999
478406,DEFINITIVO LOMBARDIA PARTE 1 MAGGIO ,Via Filzi   20833 Giussano ( MB ),Ediltre srl,1500000,45.7005858,9.203705
478537,DEFINITIVO PIEMONTE MAGGIO ,Via Cordara  14049 Nizza Monferrato ( AT ),Branda srl; assegnato,1000000,44.7745533,8.3551909
478548,DEFINITIVO LOMBARDIA PARTE 1 MAGGIO ,Via Piave  20846 Macherio ( MB ),PBS srl,8000000,45.6408307,9.2669421
478586,DEFINITIVO LOMBARDIA PARTE 1 MAGGIO ,Via Monte Nero  21042 Caronno Pertusella ( VA ),Guffanti di Guffanti e Gianni & C snc; XLam Dolomiti srl; assegnato,983000,45.6030664,9.0478025
478867,DEFINITIVO PIEMONTE MAGGIO ,Via Cravero 107  10095 Grugliasco ( TO ),Selva Mercurio srl,697000,45.06256,7.580214299999999
478968,DEFINITIVO LIGURIA MAGGIO 2025,P.le Giovanni Battista Resasco  16137 Genova ( GE ),Crezza srl; Tempio Crematorio Lombardo srl,5166000,44.4281409,8.949419
479028,DEFINITIVO EMILIA ROMAGNA MAGGIO,Via P. Togliatti  40050 Monte San Pietro ( BO ),Ter Costruzioni srl,900000,44.4484287,11.1893038
479232,DEFINITIVO PIEMONTE MAGGIO ,P.za Arpino  12042 Bra ( CN ),MPM Costruzioni srl,12000000,44.7045875,7.839936
479310,DEFINITIVO LIGURIA MAGGIO 2025,Via Roma 64  17021 Alassio ( SV ),Barbagallo Costruzioni srl,4000000,43.9988215,8.166436599999999
479407,DEFINITIVO PIEMONTE MAGGIO ,Loc. Vallebenedetta  14100 Asti ( AT ),ErrePi srl; assegnato,10000000,44.903126,8.172195
479436,DEFINITIVO EMILIA ROMAGNA MAGGIO,PEEP Q.re Farnesiana  29122 Piacenza ( PC ),BeGen Infrastrutture srl,3730000,45.0300347,9.7138525
479590,DEFINITIVO LIGURIA MAGGIO 2025,Loc.Varigotti  17024 Finale Ligure ( SV ),Eco Costruzioni dei F.lli Pampararo srls,1500000,44.1822017,8.4024378
479830,DEFINITIVO LIGURIA MAGGIO 2025,Via Marino Boccanegra  16126 Genova ( GE ),CLSL Consorzio Leonardo Servizi & Lavori,11872000,44.4148157,8.9225377
479845,DEFINITIVO LOMBARDIA PARTE 1 MAGGIO ,Via Salvo D'Acquisto  20864 Agrate Brianza ( MB ),Impresa Edile Mariani srl,1500000,45.5758967,9.34624
479847,DEFINITIVO TRENTINO FINO A MAGGIO 2025,Via Carlo Devigili  38017 Mezzolombardo ( TN ),De Vigili Imm.re srl,1600000,46.2089268,11.0995313
479853,DEFINITIVO LOMBARDIA PARTE 1 MAGGIO ,Via Francesco Guicciardini   25080 Mazzano ( BS ),Sortes srl; assegnato,1200000,45.5002716,10.3652936
480168,DEFINITIVO PIEMONTE MAGGIO ,Fr. Pieggio  28824 Oggebbio ( VB ),Fracti Costruzioni srl; assegnato,1500000,45.9959935,8.6510745
480181,DEFINITIVO VENETO FINO A MAGGIO 2025,Via San Giacomo  37135 Verona ( VR ),Coopservice Soc.coop.p.A.,11365000,45.4094556,10.9894505
480474,DEFINITIVO VENETO FINO A MAGGIO 2025,Via Pizzamano 34  35127 Padova ( PD ),IPS Srl,424000,45.3714459,11.9106245
480772,DEFINITIVO PIEMONTE MAGGIO ,Via Stazione  10090 Rosta ( TO ),Crisma Costruzioni,600000,45.0745412,7.4628222
480836,DEFINITIVO LOMBARDIA PARTE 2 MAGGIO ,Via San Quirico  20033 Solaro ( MI ),Urbania Spa,25000000,45.6134181,9.0879629
480889,DEFINITIVO PIEMONTE MAGGIO ,C.so Susa  10098 Rivoli ( TO ),Ortoncelli Costruzioni srl; assegnato,3000000,45.0801571,7.5080571
481009,DEFINITIVO LOMBARDIA PARTE 1 MAGGIO ,Via San Tomaso  24121 Bergamo ( BG ),Racco Group SpA,10000000,45.7031362,9.6747536
481239,DEFINITIVO LOMBARDIA PARTE 1 MAGGIO ,Via Sant'Anna  22010 Laglio ( CO ),Brusa Building srl,300000,45.8909264,9.1428059
481454,DEFINITIVO LOMBARDIA PARTE 1 MAGGIO ,V.le Borri 57  21100 Varese ( VA ),Notarimpresa SpA,4607000,45.8089167,8.8396282
481673,DEFINITIVO EMILIA ROMAGNA MAGGIO,Via Brando Brandi  47121 Forlì ( FC ),Olivucci Enea Srl,1200000,44.1772213,12.0689615
481815,DEFINITIVO LOMBARDIA PARTE 1 MAGGIO ,Via Vittorio Veneto  22070 Cirimido ( CO ),Demolizioni; assegnato,7000000,45.7004497,9.01203
481982,DEFINITIVO VENETO FINO A MAGGIO 2025,Via Pasteur 11  30031 Dolo ( VE ),Capogruppo ATI; Fullservice Srl,2010000,45.4225583,12.0683357
482213,DEFINITIVO LIGURIA MAGGIO 2025,Via Belvedere 18  17026 Noli ( SV ),INGINSINT  Ingegneria Insediativa Integrata SpA,1200000,44.203853,8.4141686
482388,DEFINITIVO PIEMONTE MAGGIO ,Q.re Sant'Agabio  28100 Novara ( NO ),Mattioda Pierino & Figli SpA; integrato,6445000,45.4458388,8.637461199999999
482524,DEFINITIVO LOMBARDIA PARTE 1 MAGGIO ,Via Ferraris  46034 Borgo Virgilio ( MN ),Artedil di Campennì Rocco & C srl; assegnato; lavori,1327000,45.120487,10.7825047
482608,DEFINITIVO LOMBARDIA PARTE 1 MAGGIO ,Loc. Sant'Anna  22010 Pianello del Lario ( CO ),Mascenti Davide,400000,46.1344987,9.248199
482730,DEFINITIVO PIEMONTE MAGGIO ,Via Alfazio 5  10046 Poirino ( TO ),Capogruppo ATI; Dicearco Costruzioni srl; Pace Costruzioni srl,1016000,44.9211025,7.846222300000001
482767,DEFINITIVO LOMBARDIA PARTE 2 MAGGIO ,Via San Pancrazio  20060 Gessate ( MI ),Giambelli SpA,200000000,45.547124,9.4376064
483192,DEFINITIVO LOMBARDIA PARTE 2 MAGGIO ,Via Savona 134  20144 Milano ( MI ),Gruppo Building SpA,15000000,45.4486482,9.146341099999999
483193,DEFINITIVO LOMBARDIA PARTE 2 MAGGIO ,Naviglio Grande  20143 Milano ( MI ),Gruppo Building SpA; assegnato,10000000,45.4478234,9.1554758
483330,DEFINITIVO PIEMONTE MAGGIO ,Via Venezia 16  15121 Alessandria ( AL ),Tecnica Restauri srl,3922000,44.9151912,8.6213465
483333,DEFINITIVO LIGURIA MAGGIO 2025,Via Bontà  16043 Chiavari ( GE ),Liguria Immobiliare srl; assegnato,4000000,44.3147495,9.3276829
483356,DEFINITIVO LOMBARDIA PARTE 1 MAGGIO ,Via Rosellini 27  20124 Milano ( MI ),C&I Costruzioni & Immobiliare srl,1700000,45.49137590000001,9.1954686
483802,DEFINITIVO LOMBARDIA PARTE 1 MAGGIO ,Via Mortirolo  23034 Grosotto ( SO ),Flooring dei F.lli Messina Srl,1250000,46.2808621,10.2581849
484295,DEFINITIVO LOMBARDIA PARTE 1 MAGGIO ,Via Medici 7  21050 Cantello ( VA ),Gilomach srl,2500000,45.821895,8.89507
484444,DEFINITIVO PIEMONTE MAGGIO ,Via San Damiano Macra  12100 Cuneo ( CN ),COIFA srl; Romano Costruzioni & C srl - Gruppo Romano,5911000,44.3963666,7.5189003
484650,DEFINITIVO LIGURIA MAGGIO 2025,Via Garnier 21  18012 Bordighera ( IM ),Simco srl Società Immobiliare Mattioda Costruzioni,2500000,43.7826954,7.676770599999999
484759,DEFINITIVO EMILIA ROMAGNA MAGGIO,Fr. Borgonuovo  40037 Sasso Marconi ( BO ),Capogruppo ATI; Consorzio Stabile Costruendo srl; assegnato; integrato aggiudicato alle imprese segnalate riunite in,10734000,44.4406982,11.2736358
484950,DEFINITIVO PIEMONTE MAGGIO ,Via Rocca de Baldi 7  12100 Cuneo ( CN ),COIFA srl; Capogruppo ATI,7430000,44.3904757,7.566931800000001
485058,DEFINITIVO LOMBARDIA PARTE 1 MAGGIO ,Via Bramante da Urbino 37  20900 Monza ( MB ),Capogruppo ATI; Consorzio Stabile Triangolo Lariano srl; assegnato,2528000,45.5738774,9.288535399999999
485059,DEFINITIVO LOMBARDIA PARTE 1 MAGGIO ,Qr. Regina Pacis - San Donato  20900 Monza ( MB ),Wolf System srl; assegnato; integrato; integrato per progettazione,4488000,45.573115,9.2832733
485252,DEFINITIVO VENETO FINO A MAGGIO 2025,Via Panica 17  36063 Marostica ( VI ),ITEC srl Costruzioni Generali; assegnato; integrato; integrato aggiudicato all'impresa + ITEC srl Costruzioni Generali; assegnato; integrato; integrato aggiudicato all'impresa segnalata che ha indicato,6395000,45.7439556,11.6494979
485266,DEFINITIVO LOMBARDIA PARTE 1 MAGGIO ,Via Botticelli 14  20851 Lissone ( MB ),Dream Costruzioni srl + Eur Tecna srl,660000,45.61885179999999,9.2444642
485307,DEFINITIVO LOMBARDIA PARTE 1 MAGGIO ,V.lo Lamperti 6  20061 Carugate ( MI ),Capogruppo ATI; Imprima Lavori srl; integrato,1509000,45.5477991,9.3384188
485541,DEFINITIVO LOMBARDIA PARTE 1 MAGGIO ,Via San Francesco  22040 Monguzzo ( CO ),Romeo srls,600000,45.7845614,9.2329626
485762,DEFINITIVO LOMBARDIA PARTE 2 MAGGIO ,Via Massimiano 6  20134 Milano ( MI ),Coprima srl,14000000,45.4828939,9.244748
485771,DEFINITIVO LOMBARDIA PARTE 1 MAGGIO ,Via Stilicone 10  20154 Milano ( MI ),Restructura srl,4200000,45.4903291,9.169769900000002
486094,DEFINITIVO VENETO FINO A MAGGIO 2025,Via Chiesa Prà 53  35042 Este ( PD ),Atheste Costruzioni srl; aggiudicato all'impresa segnalata che ha offerto il ribasso del 6%.; assegnato,1356000,45.2079207,11.6506596
486104,DEFINITIVO LOMBARDIA PARTE 1 MAGGIO ,Via Santa Cristina  24048 Treviolo ( BG ),Adobati Eliseo & C snc + Spedil srl,2000000,45.6727052,9.6039938
486107,DEFINITIVO VENETO FINO A MAGGIO 2025,Via San Girolamo  35042 Este ( PD ),Ruffato Mario srl; aggiudicato all'impresa segnalata che ha offerto il; assegnato,1822000,45.2276213,11.6592289
486276,DEFINITIVO LOMBARDIA PARTE 1 MAGGIO ,Via del Carso  25124 Brescia ( BS ),Girelli Costruzioni srl + Santamargherita srl,3200000,45.5179853,10.2316465
486650,DEFINITIVO LOMBARDIA PARTE 1 MAGGIO ,Via Carlo Alberto 8  27023 Cassolnovo ( PV ),Edilcassolese sas di Truglio Vincenzo & C; assegnato,2400000,45.36344190000001,8.808692299999999
486880,DEFINITIVO PIEMONTE MAGGIO ,Fr. Abbadia Alpina  10064 Pinerolo ( TO ),ICR Costruzioni srl,4000000,44.88587159999999,7.3095834
487164,DEFINITIVO LOMBARDIA PARTE 1 MAGGIO ,Via Alessandro Volta 34  22029 Uggiate con Ronago ( CO ),FG Costruzioni srl; assegnato,1500000,45.8197357,8.9661177
487573,DEFINITIVO LOMBARDIA PARTE 1 MAGGIO ,V.le Romagna 40  20900 Monza ( MB ),Wolf Haus srl,9000000,45.5729603,9.2516503
487684,DEFINITIVO LOMBARDIA PARTE 1 MAGGIO ,Via Bramante da Urbino 45  20900 Monza ( MB ),Capogruppo ATI; Consorzio Stabile Triangolo Lariano srl; assegnato,1826000,45.5736161,9.290044499999999
488074,DEFINITIVO LOMBARDIA PARTE 1 MAGGIO ,Via Amendola 27  21100 Varese ( VA ),Demolizioni,3000000,45.82774690000001,8.7972959
488126,DEFINITIVO LOMBARDIA PARTE 1 MAGGIO ,Via Erodoto 16  20126 Milano ( MI ),AT Toptaglio srl; COEMI Coop Edile Muratori srl,12000000,45.50904389999999,9.221136999999999
488230,DEFINITIVO PIEMONTE MAGGIO ,Via Roma  13854 Quaregna Cerreto ( BI ),ISI Costruzioni Generali srl,2800000,45.5671617,8.153512
488305,DEFINITIVO LOMBARDIA PARTE 1 MAGGIO ,C.so Matteotti 4  20121 Milano ( MI ),Industrie D'Amico srl,12000000,45.46681230000001,9.1941699
488315,DEFINITIVO LOMBARDIA PARTE 2 MAGGIO ,Via Monte Sabini 21  20141 Milano ( MI ),GA Enne Costruzioni srl,12000000,45.42856949999999,9.2004445
488553,DEFINITIVO LOMBARDIA PARTE 1 MAGGIO ,P.za Tirana 24  20147 Milano ( MI ),Borio Mangiarotti SpA,15000000,45.4429338,9.1291747
488683,DEFINITIVO LOMBARDIA PARTE 1 MAGGIO ,Via Isonzo 42  21020 Buguggiate ( VA ),Massetti Costruzioni srl,3000000,45.772635,8.810126
488911,DEFINITIVO VENETO FINO A MAGGIO 2025,Via San Francesco  35020 Ponte San Nicolò ( PD ),Scapin Costruzioni srl,1050000,45.3616573,11.9374784
489057,DEFINITIVO PIEMONTE MAGGIO ,Str.Circonvallazione  15048 Valenza ( AL ),Edil Alta srl,1200000,44.9863463,8.6365885
489197,DEFINITIVO PIEMONTE MAGGIO ,P.za Alciati 4-11-15  13100 Vercelli ( VC ),Notarimpresa SpA,2150000,45.3245668,8.424615900000001
489424,DEFINITIVO PIEMONTE MAGGIO ,Via Giaveno   10040 Rivalta di Torino ( TO ),Gemina srl,3000000,45.0132074,7.5045824
489601,DEFINITIVO PIEMONTE MAGGIO ,Via Botoneri  12062 Cherasco ( CN ),Marengo Costruzioni srl; assegnato,5000000,44.6433438,7.8569318
489606,DEFINITIVO PIEMONTE MAGGIO ,V.le Stazione 3  10024 Moncalieri ( TO ),PaREd srl,247000,44.9987634,7.6791139
489613,DEFINITIVO PIEMONTE MAGGIO ,C.so Trieste 41  10024 Moncalieri ( TO ),Consorzio Stabile Energos; Fenix Consorzio Stabile scarl,1683000,45.009234,7.670859699999999
489615,DEFINITIVO PIEMONTE MAGGIO ,Via S.Maria 78/80/82  10024 Moncalieri ( TO ),Studio Oikos srl,1309000,44.9920664,7.6638633
489750,DEFINITIVO EMILIA ROMAGNA MAGGIO,Loc. Quara  42010 Toano ( RE ),Tazzioli e Magnani srl,778000,44.356627,10.5078975
489751,DEFINITIVO LOMBARDIA PARTE 2 MAGGIO ,Via Stelvio 6  20813 Bovisio-Masciago ( MB ),Futura srl; GM Costruzioni srl,5500000,45.60241449999999,9.1447317
489767,DEFINITIVO PIEMONTE MAGGIO ,Via G. Ferraris  13100 Vercelli ( VC ),Notarimpresa SpA,1985000,45.3277404,8.4200875
489878,DEFINITIVO LOMBARDIA PARTE 1 MAGGIO ,Fr. di Romano Paltano  20079 Basiglio ( MI ),Colombo Costruzioni SpA,69500000,45.3608902,9.1567557
489909,DEFINITIVO LOMBARDIA PARTE 1 MAGGIO ,Via Rovigno 18  20125 Milano ( MI ),Tierre Immobiliare srl,9000000,45.5025246,9.2194433
490051,DEFINITIVO LOMBARDIA PARTE 1 MAGGIO ,Via Pio XII 50  20060 Pozzuolo Martesana ( MI ),Libruma Costruzioni srl,2500000,45.5192089,9.4780927
490111,DEFINITIVO LOMBARDIA PARTE 1 MAGGIO ,Via San Francesco 33  46019 Viadana ( MN ),Wolf System srl,1140000,44.9297281,10.5270094
490142,DEFINITIVO PIEMONTE MAGGIO ,Via Dante 87-89  13100 Vercelli ( VC ),Notarimpresa SpA,3319000,45.3266061,8.4197123
490161,DEFINITIVO EMILIA ROMAGNA MAGGIO,Via Zanasi 60  41013 Castelfranco Emilia ( MO ),Capogruppo ATI; Mei Tecnologie e Costruzioni srl,1050000,44.593983,11.052136
490178,DEFINITIVO LOMBARDIA PARTE 1 MAGGIO ,S.P. 14 Rivoltana  20050 Liscate ( MI ),BPZ Immobiliare srl,6000000,45.4818256,9.4126878
490196,DEFINITIVO EMILIA ROMAGNA MAGGIO,Via Europa  47822 Santarcangelo di Romagna ( RN ),FLP Costruzioni srl,9000000,44.0604613,12.4577732
490262,DEFINITIVO LOMBARDIA PARTE 1 MAGGIO ,Via Aresi  46010 Curtatone ( MN ),Futuredil Mantova srl,650000,45.1311738,10.7477513
490268,DEFINITIVO LIGURIA MAGGIO 2025,Via Cechov 11  16159 Genova ( GE ),CEMA Costruzioni Edili Marittime Autostradali srl,3833000,44.4512277,8.906123599999999
490269,DEFINITIVO LOMBARDIA PARTE 1 MAGGIO ,Via Goito   46049 Volta Mantovana ( MN ),Sorosina srl,849000,45.3174385,10.6594427
490467,DEFINITIVO EMILIA ROMAGNA MAGGIO,Via Grandi 195  41019 Soliera ( MO ),ArCo Lavori s.coop.consortile; VF Costruzioni e Restauri srl,2815000,44.73987289999999,10.925054
490624,DEFINITIVO LOMBARDIA PARTE 1 MAGGIO ,Via Damiano Chiesa 29  26841 Casalpusterlengo ( LO ),Pascolo srl,720000,45.2004134,9.6154511
490626,DEFINITIVO LOMBARDIA PARTE 1 MAGGIO ,Via Vanoni 5  26841 Casalpusterlengo ( LO ),Cosiam srl,1172000,45.197432,9.616263
490667,DEFINITIVO LOMBARDIA PARTE 1 MAGGIO ,Via Dottor Libero Signorelli  24064 Grumello del Monte ( BG ),Fin Berg srl Costruzioni Generali,1200000,45.6387907,9.8832755
490682,DEFINITIVO LOMBARDIA PARTE 1 MAGGIO ,Via Promessi Sposi  23868 Valmadrera ( LC ),Impresa Edile Stampini srl,6000000,45.8521534,9.3644119
490688,DEFINITIVO LOMBARDIA PARTE 1 MAGGIO ,Via Goito  25015 Desenzano del Garda ( BS ),La Solidarietà CMG Cooperativa Muratori Gussola,1629000,45.4665399,10.5304945
490696,DEFINITIVO LOMBARDIA PARTE 1 MAGGIO ,Via Pellico  20027 Rescaldina ( MI ),Finocchiaro Costruzioni srl,3605000,45.6151793,8.9517777
490773,DEFINITIVO PIEMONTE MAGGIO ,St. Becco d'Ania  12038 Savigliano ( CN ),Immobiliare Santarosa srl,2000000,44.6481313,7.6539457
490922,DEFINITIVO LOMBARDIA PARTE 2 MAGGIO ,Via Toti  20846 Macherio ( MB ),Impresa Edile Fratelli Faletra; assegnato,2000000,45.6287495,9.2418013
491290,DEFINITIVO EMILIA ROMAGNA MAGGIO,Via Puccini  40026 Imola ( BO ),Cires Società Cooperativa; Consorzio Innova Società Cooperativa; Mucini Srl di Mucini Gianfranco; SIVer Costruzioni Srl,1596000,44.3457223,11.6844563
491304,DEFINITIVO EMILIA ROMAGNA MAGGIO,Loc. Bazzano  43024 Neviano degli Arduini ( PR ),Chiastra & Pattera Costruzioni srl,654000,44.5708022,10.3697652
491415,DEFINITIVO LOMBARDIA PARTE 2 MAGGIO ,Via Val Gardena 9  20128 Milano ( MI ),Edilpan srl,5000000,45.5086798,9.229974499999999
491497,DEFINITIVO LOMBARDIA PARTE 2 MAGGIO ,Via Giotto 102  25015 Desenzano del Garda ( BS ),Bonzi SpA; CRS Impianti e Costruzioni SpA; assegnato,11330000,45.458496,10.5545636
491589,DEFINITIVO VENETO FINO A MAGGIO 2025,Via Stadio 16  31015 Conegliano ( TV ),Golden Art srl,2700000,45.8814895,12.3047018
491654,DEFINITIVO LOMBARDIA PARTE 1 MAGGIO ,Viai Donatori di Sangue  20013 Magenta ( MI ),RVM Impianti srl; assegnato,1092000,45.4843711,8.9087285
491816,DEFINITIVO PIEMONTE MAGGIO ,Via Santa Caterina 25  15011 Acqui Terme ( AL ),Bianchi Costruzioni sas di Bianchi geom Carlo e C,855000,44.6733784,8.464229999999999
492195,DEFINITIVO LOMBARDIA PARTE 2 MAGGIO ,V.le Giulio Richard 1  20143 Milano ( MI ),Intesa Costruzioni srl,25000000,45.4452971,9.146776299999999
492361,DEFINITIVO LOMBARDIA PARTE 1 MAGGIO ,Via Forze Armate 195  20152 Milano ( MI ),Gruppo CVL Costruzioni Vinco Legnano SpA,7500000,45.4601577,9.1122435
492519,DEFINITIVO LOMBARDIA PARTE 1 MAGGIO ,Via Arno 39  20089 Rozzano ( MI ),Borio Mangiarotti SpA,10000000,45.3958445,9.1676807
492627,DEFINITIVO LOMBARDIA PARTE 1 MAGGIO ,Via Somaini 5  22020 San Fermo della Battaglia ( CO ),Impredima srl,2532000,45.8082636,9.0416983
492823,DEFINITIVO LOMBARDIA PARTE 1 MAGGIO ,Via Alserio 20  20159 Milano ( MI ),Grassi & Crespi srl,5000000,45.49072870000001,9.1867926
492880,DEFINITIVO LIGURIA MAGGIO 2025,Loc. Valloni  17038 Villanova d'Albenga ( SV ),Edilparc srl,1000000,44.0716976,8.0844598
492911,DEFINITIVO LOMBARDIA PARTE 1 MAGGIO ,P.zza Hiroshima e Nagasaki  20099 Sesto San Giovanni ( MI ),Bua Costruzioni Generali srl,418000,45.5287282,9.23721
492978,DEFINITIVO LOMBARDIA PARTE 2 MAGGIO ,Via San Fereolo 11  26900 Lodi ( LO ),DP Costruzioni srl,2704000,45.3060319,9.487083799999999
493130,DEFINITIVO LOMBARDIA PARTE 1 MAGGIO ,Via Daniele Crespi 16  20123 Milano ( MI ),Edilpark SpA,2000000,45.45674140000001,9.1731759
493132,DEFINITIVO LOMBARDIA PARTE 2 MAGGIO ,Via Vasari 19  20135 Milano ( MI ),Cogefa SpA,20000000,45.4544698,9.207263099999999
493574,DEFINITIVO VENETO FINO A MAGGIO 2025,Via Carlo Goldoni  35010 Massanzago ( PD ),Fam Real Estate; assegnato,450000,45.5534686,12.0013151
493637,DEFINITIVO LOMBARDIA PARTE 1 MAGGIO ,Via Balduccio da Pisa 7  20139 Milano ( MI ),Tecnosuolo srl,20000000,45.4418499,9.2082373
493747,DEFINITIVO EMILIA ROMAGNA MAGGIO,Via Tine  44022 Comacchio ( FE ),Cires Società Cooperativa; Consorzio Integra Società Cooperativa; Seep Bo srl,1515000,44.6859721,12.1940148
493748,DEFINITIVO EMILIA ROMAGNA MAGGIO,Via Risorgimento  44022 Comacchio ( FE ),Alco Costruzioni srl,1069000,44.6783948,12.2299464
493834,DEFINITIVO EMILIA ROMAGNA MAGGIO,Via Costa snc  40011 Anzola dell'Emilia ( BO ),Marvitt srl,3000000,44.5508455,11.1883751
493937,DEFINITIVO LOMBARDIA PARTE 1 MAGGIO ,Via Pompeo Mariani 14  20128 Milano ( MI ),Botta SpA,5000000,45.5108196,9.2339149
494250,DEFINITIVO EMILIA ROMAGNA MAGGIO,Via Nigrisoli  40026 Imola ( BO ),Samiro Costruzioni srl,1000000,44.3571996,11.6914308
494356,DEFINITIVO LIGURIA MAGGIO 2025,L.go Gerolamo Gaslini 5  16147 Genova ( GE ),Arcoservizi SpA; CMB Coop Muratori e Braccianti di Carpi srl; Mieci SpA,164400000,44.39123379999999,8.9882592
494465,DEFINITIVO EMILIA ROMAGNA MAGGIO,Via Mar Nero  41012 Carpi ( MO ),Garc SpA; assegnato,9363000,44.8213778,10.88605
494586,DEFINITIVO PIEMONTE MAGGIO ,Via Calderara 12-18  28100 Novara ( NO ),Gruppo Tecnoimprese srl,2204000,45.4453275,8.645506899999999
494678,DEFINITIVO PIEMONTE MAGGIO ,Via Beale  10094 Giaveno ( TO ),Consorzio Innova Società Cooperativa,1067000,45.0343803,7.3468669
494738,DEFINITIVO TRENTINO FINO A MAGGIO 2025,Via Fedrigotti 7  38068 Rovereto ( TN ),Edilvalorzi srl,407000,45.8848108,11.0202568
494828,DEFINITIVO LOMBARDIA PARTE 1 MAGGIO ,Via Imborgnana  21050 Cuasso al Monte ( VA ),Capogruppo ATI; Editel SpA; aggiudicato a favore della RTP indicata mediante sottoscrizione di; assegnato,3629000,45.9064239,8.8602493
495102,DEFINITIVO VENETO FINO A MAGGIO 2025,Via per Crero  37010 Torri del Benaco ( VR ),Luma Immobilien srl,200000,45.6366762,10.7071696
495145,DEFINITIVO LOMBARDIA PARTE 1 MAGGIO ,Via Ponte Nuovo 51  20128 Milano ( MI ),PASIFIM srl,3800000,45.5085166,9.2361633
495163,DEFINITIVO LOMBARDIA PARTE 2 MAGGIO ,P.za Ospedale Maggiore 3  20161 Milano ( MI ),ArCo Lavori s.coop.consortile + ArCo Lavori s.coop.consortile; aggiudicato a seguito di sottoscrizione di accordo quadro.; assegnato + Capogruppo ATI + Capogruppo ATI; Gruppo Eden srls Edilizia Energetica + Capogruppo ATI; Gruppo Eden srls Edilizia Energetica; integrato aggiudicato a seguito di sottoscrizione di accordo + Multi Manutenzione srl; integrato,1573000,45.50795069999999,9.186401499999999
495233,DEFINITIVO LOMBARDIA PARTE 1 MAGGIO ,Via Caduti in Missione di Pace  20134 Milano ( MI ),Costruire In srl; Edil Finazzi srl,20000000,45.4778724,9.2497942
495306,DEFINITIVO PIEMONTE MAGGIO ,V.le degli Angeli 130  12100 Cuneo ( CN ),Artusio Costruzioni srl; assegnato,1000000,44.3710052,7.539538199999999
495402,DEFINITIVO LOMBARDIA PARTE 1 MAGGIO ,Via De Gasperi  24030 Ambivere ( BG ),Assolari Luigi & C.SpA; Capogruppo ATI,1461000,45.7185199,9.5472196
495407,DEFINITIVO LOMBARDIA PARTE 1 MAGGIO ,Loc.Campelli   23010 Albosaggia ( SO ),CoGeTri srl,765000,46.13511099999999,9.8688032
495412,DEFINITIVO EMILIA ROMAGNA MAGGIO,Via Lama di Reno 30  40043 Marzabotto ( BO ),Balestri Srl; Effe-Gi Impianti Srl,5587000,44.3652244,11.2157117
495495,DEFINITIVO EMILIA ROMAGNA MAGGIO,V.le Amerigo Vespucci  48125 Ravenna ( RA ),Galileo srl,5800000,44.3241064,12.3337811
495536,DEFINITIVO PIEMONTE MAGGIO ,Loc. Area Altipiano  12100 Cuneo ( CN ),Giordano Costruzioni srl,1200000,44.3844766,7.5426711
495669,DEFINITIVO LOMBARDIA PARTE 1 MAGGIO ,Via dei Rospigliosi 43  20148 Milano ( MI ),ImpreDo SpA,25000000,45.4758905,9.127056999999999
495780,DEFINITIVO VENETO FINO A MAGGIO 2025,Via Roma  45030 Pontecchio Polesine ( RO ),Giotto srl,920000,45.0183253,11.8176784
495897,DEFINITIVO EMILIA ROMAGNA MAGGIO,via Belisardi  47833 Morciano di Romagna ( RN ),Immobiliare Valconca snc; SB Gestioni snc; assegnato,300000,43.9094638,12.6533025
495903,DEFINITIVO EMILIA ROMAGNA MAGGIO,Via Saragat  40019 Sant'Agata Bolognese ( BO ),Edilcraft srl,4500000,44.6595848,11.1456225
496052,DEFINITIVO LOMBARDIA PARTE 2 MAGGIO ,Via Gaeta 18  20161 Milano ( MI ),Gruppo Cogifer SpA,5000000,45.5206184,9.1720946
496253,DEFINITIVO VENETO FINO A MAGGIO 2025,Via Martiri delle Foibe  32036 Sedico ( BL ),Tena srl,1500000,46.1138677,12.0928919
496283,DEFINITIVO LOMBARDIA PARTE 1 MAGGIO ,Via Pizzi 5  20141 Milano ( MI ),Gruppo Cogifer SpA,5000000,45.43694989999999,9.2011521
496292,DEFINITIVO LOMBARDIA PARTE 1 MAGGIO ,Via dei Giaggioli  20147 Milano ( MI ),Capogruppo ATI; Scotta srl,45710000,45.450409,9.1303121
496329,DEFINITIVO LOMBARDIA PARTE 1 MAGGIO ,Via Papa Giovanni XXIII 19 a/b  22060 Arosio ( CO ),Impresa Bellomi snc,906000,45.7419855,9.113189
496371,DEFINITIVO VENETO FINO A MAGGIO 2025,Via dei Lotti 40  36061 Bassano del Grappa ( VI ),Vittadello SpA,10156000,45.74865579999999,11.746386
496384,DEFINITIVO EMILIA ROMAGNA MAGGIO,Via Sacco e Vanzetti  44021 Codigoro ( FE ),Cires Società Cooperativa; Consorzio Integra Società Cooperativa; Seep Bo srl,1556000,44.8296325,12.1162043
496560,DEFINITIVO EMILIA ROMAGNA MAGGIO,Via Tisi 4  44011 Argenta ( FE ),Cires Società Cooperativa; Consorzio Integra Società Cooperativa; Seep Bo srl,2614000,44.6107088,11.8420214
496599,DEFINITIVO EMILIA ROMAGNA MAGGIO,Via R. Livatino 2  43039 Salsomaggiore Terme ( PR ),Renato Monica srl; integrato,682000,44.81658849999999,9.9945036
496621,DEFINITIVO LOMBARDIA PARTE 2 MAGGIO ,Via Garbagnate  20045 Lainate ( MI ),GiMaCo Costruzioni srl,6000000,45.5738011,9.0403453
496671,DEFINITIVO EMILIA ROMAGNA MAGGIO,Via Verga 2  44047 Terre del Reno ( FE ),Medil srl Costruzioni Generali,726000,44.8019071,11.4133937
496705,DEFINITIVO LOMBARDIA PARTE 2 MAGGIO ,Via Colombo  21040 Gerenzano ( VA ),Delta Ecopolis Soc Coop; assegnato,15000000,45.6441495,9.0027979
496776,DEFINITIVO EMILIA ROMAGNA MAGGIO,Via Andrea Costa 4  42016 Guastalla ( RE ),Edilpiù di Vaccari Emerenzio & C Snc,1536000,44.9212965,10.6504698
496930,DEFINITIVO EMILIA ROMAGNA MAGGIO,Via Vittorio Emanuele II 20/ a-b  44027 Fiscaglia ( FE ),GC Appalti srl; assegnato; integrato,1382000,44.798827,11.9735855
496932,DEFINITIVO EMILIA ROMAGNA MAGGIO,Via Rodolfo Morandi 1  44023 Lagosanto ( FE ),P & C Costruzioni srl; Rico Costruzioni srl; integrato,753000,44.7625854,12.1453606
496942,DEFINITIVO EMILIA ROMAGNA MAGGIO,Via Lorenzini 1  44020 Ostellato ( FE ),Medil srl Costruzioni Generali,725000,44.7652349,11.8729277
496946,DEFINITIVO EMILIA ROMAGNA MAGGIO,Via Roma 39  44015 Portomaggiore ( FE ),Alco Costruzioni srl,1951000,44.6994501,11.8062143
497418,DEFINITIVO EMILIA ROMAGNA MAGGIO,Via Celletta dell'Olio  47822 Santarcangelo di Romagna ( RN ),Dolci Ezio,150000,44.0539705,12.4438825
497428,DEFINITIVO LOMBARDIA PARTE 1 MAGGIO ,Via Silvio Pellico  22078 Turate ( CO ),De Marchi Danilo Costruzioni srl,2400000,45.6588164,9.0072405
497519,DEFINITIVO LOMBARDIA PARTE 1 MAGGIO ,Via Pozzo Bianco  27045 Casteggio ( PV ),Impresa Edile Luigi Privitello,1000000,45.0122403,9.1248284
497639,DEFINITIVO LOMBARDIA PARTE 1 MAGGIO ,V.le Sarca 45  20125 Milano ( MI ),Luxury Restauri e Ristrutturazioni srl,3000000,45.505708,9.2025315
497722,DEFINITIVO EMILIA ROMAGNA MAGGIO,Via Nenni 41  44028 Poggio Renatico ( FE ),Medil srl Costruzioni Generali; integrato,708000,44.76243849999999,11.4895676
497909,DEFINITIVO EMILIA ROMAGNA MAGGIO,Via Focherini  41043 Formigine ( MO ),Frascari Ferruccio SpA,4800000,44.5799229,10.8447998
497912,DEFINITIVO LOMBARDIA PARTE 1 MAGGIO ,Via Gallarana  20900 Monza ( MB ),Replas Costruzioni srl; assegnato,350000,45.5859195,9.2972687
498124,DEFINITIVO PIEMONTE MAGGIO ,Via Orsoline  28922 Verbania ( VB ),Fracti Costruzioni srl; assegnato,5000000,45.9250592,8.5509109
498243,DEFINITIVO LOMBARDIA PARTE 1 MAGGIO ,Via Marconi 4  24050 Cavernago ( BG ),Prefgab srl,2035000,45.6166157,9.759993399999999
498303,DEFINITIVO LOMBARDIA PARTE 1 MAGGIO ,Via Stilicone 16  20154 Milano ( MI ),Edil CEI srl,4000000,45.490872,9.1693869
498510,DEFINITIVO LOMBARDIA PARTE 1 MAGGIO ,Via del Borgo Basso  24040 Bonate Sotto ( BG ),Edil Ceramiche Beretta srl,2500000,45.6655156,9.5637594
498532,DEFINITIVO EMILIA ROMAGNA MAGGIO,V.le Piemonte  47838 Riccione ( RN ),Sorgente srl,932000,44.0077449,12.6269914
498812,DEFINITIVO LOMBARDIA PARTE 1 MAGGIO ,Via Romagna  20090 Buccinasco ( MI ),Pianesi & Associati srl,798000,45.4145564,9.108064
498883,DEFINITIVO VENETO FINO A MAGGIO 2025,via don Giuseppe Chiminazzo  37040 Veronella ( VR ),Impresa Edile Immobiliare Barche srl,300000,45.3423991,11.3179689
498895,DEFINITIVO EMILIA ROMAGNA MAGGIO,Via B.go San Giuseppe 32  43125 Parma ( PR ),Cams Servizi Edili srl; Capogruppo ATI; F.lli B System Srl,1116000,44.7997812,10.3191568
498898,DEFINITIVO EMILIA ROMAGNA MAGGIO,Via del Garda 8  43123 Parma ( PR ),Cams Servizi Edili srl; Capogruppo ATI,1227000,44.8023183,10.3503157
499023,DEFINITIVO PIEMONTE MAGGIO ,Via Martiri  12081 Beinette ( CN ),Impresa Edile Marchisio di Marchisio Renato & C,3000000,44.3667195,7.6426329
499108,DEFINITIVO EMILIA ROMAGNA MAGGIO,Via San Leo 10  44019 Voghiera ( FE ),Medil srl Costruzioni Generali,498000,44.7670023,11.751336
499209,DEFINITIVO PIEMONTE MAGGIO ,Via San Gillio  10044 Pianezza ( TO ),Fanutza Costruzioni srl; Franchino Costruzioni srl; assegnato,5000000,45.1145938,7.5445213
499256,DEFINITIVO EMILIA ROMAGNA MAGGIO,via Mirti  43015 Noceto ( PR ),Classe A srl,300000,44.8220546,10.2150709
499417,DEFINITIVO VENETO FINO A MAGGIO 2025,Via Cappuccini 34  37013 Caprino Veronese ( VR ),ArCo Lavori s.coop.consortile; Gelmini Cav. Nello SpA; Ruffato Mario srl,6088000,45.6084564,10.7966241
499432,DEFINITIVO VENETO FINO A MAGGIO 2025,Via Ospedale   37012 Bussolengo ( VR ),ArCo Lavori s.coop.consortile; Radar srl,4300000,45.4753162,10.8496613
499486,DEFINITIVO VENETO FINO A MAGGIO 2025,Via Villa Trezza   37042 Caldiero ( VR ),Lasa F.lli Nata srl,1574000,45.4136187,11.14945
499529,DEFINITIVO LOMBARDIA PARTE 1 MAGGIO ,Via Giulio Carcano 32  20141 Milano ( MI ),Edil Ferri SpA,8000000,45.4390031,9.1821174
500018,DEFINITIVO LOMBARDIA PARTE 1 MAGGIO ,Loc. Tolao  24010 Costa Serina ( BG ),L'Orobica srl,8000000,45.8320262,9.7408589
500059,DEFINITIVO VENETO FINO A MAGGIO 2025,Via della Pace  45010 Villadose ( RO ),Edilcos Costruzioni srl,1200000,45.0740046,11.8920927
500410,DEFINITIVO LOMBARDIA PARTE 2 MAGGIO ,Via Cancano 5  20152 Milano ( MI ),Albini e Castelli srl,15000000,45.46061419999999,9.1012665
500488,DEFINITIVO LOMBARDIA PARTE 1 MAGGIO ,Via Tazzoli 5  22060 Carugo ( CO ),Zaco srl,6000000,45.7119544,9.194099999999999
500506,DEFINITIVO PIEMONTE MAGGIO ,Via Buonarroti 18  28100 Novara ( NO ),Costruzioni Edili Ferrò srl,1500000,45.4427088,8.6149559
500595,DEFINITIVO EMILIA ROMAGNA MAGGIO,Via Card.Maculani  29100 Piacenza ( PC ),Housingest Network Srl,1831000,45.0588439,9.6945459
500677,DEFINITIVO PIEMONTE MAGGIO ,Via G. Pacchiotti   10094 Giaveno ( TO ),Macchia srl,3000000,45.0776928,7.6274815
500774,DEFINITIVO PIEMONTE MAGGIO ,Via Comba Romana  12026 Piasco ( CN ),Rinaudo Costruzioni di Rinaudo Francesco & C snc,3000000,44.56238,7.4513213
500796,DEFINITIVO LOMBARDIA PARTE 1 MAGGIO ,Via Sant'Agostino  21057 Olgiate Olona ( VA ),Edilvit srl; assegnato,1000000,45.6378278,8.8856064
500955,DEFINITIVO VENETO FINO A MAGGIO 2025,Q.re. San Liberale  31100 Treviso ( TV ),Capogruppo ATI; Ecis Global srl; Mini Costruzioni Srl,4000000,45.5494774,12.3366256
500988,DEFINITIVO LOMBARDIA PARTE 1 MAGGIO ,Via Melzo 7  20129 Milano ( MI ),Forma srl,5000000,45.4729402,9.209293200000001
500991,DEFINITIVO LOMBARDIA PARTE 2 MAGGIO ,Via Trezzo d'Adda 14  20144 Milano ( MI ),Borio Mangiarotti SpA,3500000,45.4559553,9.1567745
501108,DEFINITIVO PIEMONTE MAGGIO ,C.so Stati Uniti 21  10128 Torino ( TO ),Primula Costruzioni srl,10000000,45.06249469999999,7.6701742
501329,DEFINITIVO LOMBARDIA PARTE 1 MAGGIO ,Via Aril  46041 Asola ( MN ),Bonazzoli Costruzioni srl,900000,45.2209079,10.4159001
501562,DEFINITIVO LOMBARDIA PARTE 2 MAGGIO ,Via Viganò 1  22100 Como ( CO ),Mazzucchi Costruzioni srl,9000000,45.7979236,9.0907732
501581,DEFINITIVO LOMBARDIA PARTE 1 MAGGIO ,Via Ponchielli 59  26022 Castelverde ( CR ),LoBa Costruire srl,320000,45.2165294,9.9858729
501670,DEFINITIVO PIEMONTE MAGGIO ,Via Cavour 3  28100 Novara ( NO ),Capogruppo ATI,1402000,45.4493226,8.6218956
501679,DEFINITIVO LOMBARDIA PARTE 1 MAGGIO ,Via Calabria  20158 Milano ( MI ),House & Works srl,3000000,45.4961801,9.1694234
501683,DEFINITIVO LOMBARDIA PARTE 1 MAGGIO ,Via Barnaba Oriani 58  20156 Milano ( MI ),COEMI Coop Edile Muratori srl,6000000,45.5009135,9.133054999999999
501719,DEFINITIVO VENETO FINO A MAGGIO 2025,Via Antonio Carpene'  31015 Conegliano ( TV ),Fim Group srl; assegnato,1200000,45.8931795,12.3025181
501856,DEFINITIVO PIEMONTE MAGGIO ,Area ex Veglio   10154 Torino ( TO ),Mattioda Pierino & Figli SpA,13007000,45.0998344,7.710656600000001
502032,DEFINITIVO PIEMONTE MAGGIO ,Via Voltaggio   15066 Gavi ( AL ),Vallemme Costruzioni snc; assegnato,3000000,44.6838916,8.8074559
502102,DEFINITIVO LOMBARDIA PARTE 2 MAGGIO ,Via Monte Sordo  21019 Somma Lombardo ( VA ),Koliba srl,1200000,45.6892471,8.6987319
502258,DEFINITIVO LOMBARDIA PARTE 2 MAGGIO ,Vc. Giusti  23868 Valmadrera ( LC ),Radaelli Costruzioni srl,418000,45.848789,9.3581283
502365,DEFINITIVO VENETO FINO A MAGGIO 2025,Via del Bersagliere  37045 Legnago ( VR ),Veneta Costruzioni srl; assegnato,1500000,45.1826466,11.1464687
502430,DEFINITIVO EMILIA ROMAGNA MAGGIO,Str. del Lazzaretto  43123 Parma ( PR ),Buozzi & C. Costruzioni srl,5000000,44.7613676,10.3761713
502432,DEFINITIVO EMILIA ROMAGNA MAGGIO,Via Budellungo Est  43123 Parma ( PR ),Immobiliare Farnese srl,4000000,44.78385,10.346774
502671,DEFINITIVO LOMBARDIA PARTE 1 MAGGIO ,Via Socrate 64  20128 Milano ( MI ),Edil Eco srl,7500000,45.52064379999999,9.2293266
502674,DEFINITIVO EMILIA ROMAGNA MAGGIO,Via Celletta dell’Olio 649  47822 Santarcangelo di Romagna ( RN ),EnCam Srl,252000,44.0529763,12.4438342
502675,DEFINITIVO LOMBARDIA PARTE 2 MAGGIO ,Via Caravaggio  25028 Verolanuova ( BS ),Lucchini Costruzioni srl,2500000,45.3322172,10.0738813
502677,DEFINITIVO LOMBARDIA PARTE 2 MAGGIO ,Loc. Budrie  25028 Verolanuova ( BS ),Lucchini Costruzioni srl,2300000,45.32607360000001,10.0748315
502768,DEFINITIVO LIGURIA MAGGIO 2025,via S.Pietro  17011 Albisola Superiore ( SV ),Levy srl,4000000,44.333643,8.5132126
502858,DEFINITIVO LOMBARDIA PARTE 1 MAGGIO ,Via Circonvallazione 14bis  46027 San Benedetto Po ( MN ),Martinotti Prefabbricati srl,683000,45.0391334,10.9265017
503287,DEFINITIVO LOMBARDIA PARTE 1 MAGGIO ,Via Luigi Mangiagalli 3  20133 Milano ( MI ),COEMI Coop Edile Muratori srl,15000000,45.4743291,9.2244728
503296,DEFINITIVO LOMBARDIA PARTE 2 MAGGIO ,Via Giovanni XXIII  24040 Madone ( BG ),Roncelli Group srl,3000000,45.6506156,9.5507495
503391,DEFINITIVO PIEMONTE MAGGIO ,Via Costantino Perazzi 34  28100 Novara ( NO ),Frola Group Costruzioni,1000000,45.4411356,8.6082627
503750,DEFINITIVO EMILIA ROMAGNA MAGGIO,Via Nazionale Ponente 5  44011 Argenta ( FE ),Gemmo SpA; assegnato; integrato aggiudicato all'impresa segnalata. Lavori,10059000,44.6121017,11.8346475
503757,DEFINITIVO LOMBARDIA PARTE 1 MAGGIO ,P.le Archinto  20159 Milano ( MI ),Edil BB srl,5000000,45.4878632,9.1872696
503806,DEFINITIVO EMILIA ROMAGNA MAGGIO,Via Gandolfi  40050 Castello d'Argile ( BO ),Merighi srl,600000,44.6762477,11.2955451
503846,DEFINITIVO LOMBARDIA PARTE 1 MAGGIO ,Via Egidio Folli 24  20134 Milano ( MI ),Coccia Costruzioni srl,7300000,45.4858876,9.2454048
503993,DEFINITIVO VENETO FINO A MAGGIO 2025,Via Scarlatti 2  45100 Rovigo ( RO ),Barzon Costruzioni Generali; aggiudicato; assegnato,780000,45.0674915,11.771813
503994,DEFINITIVO VENETO FINO A MAGGIO 2025,Via W. Ferrari 30  45100 Rovigo ( RO ),Milan Luigi srl,758000,45.0748447,11.7850885
504015,DEFINITIVO PIEMONTE MAGGIO ,St. Romana  10040 Caselette ( TO ),Impresapiemonte srl,5000000,45.107729,7.4823481
504025,DEFINITIVO LOMBARDIA PARTE 2 MAGGIO ,Via Fenice 5  25049 Iseo ( BS ),PR Edil Group srl,600000,45.6655696,10.0660154
504034,DEFINITIVO LOMBARDIA PARTE 1 MAGGIO ,Via De Gasperi 21  25086 Rezzato ( BS ),"Gruppo Rossi srl; assegnato; assegnato all'impresa indicata con un ribasso del 16,744% .",1465000,45.5145905,10.3179163
504053,DEFINITIVO EMILIA ROMAGNA MAGGIO,Via Fenuzzi   41049 Sassuolo ( MO ),Acea Costruzioni SpA,3000000,44.5400508,10.7824231
504158,DEFINITIVO LOMBARDIA PARTE 2 MAGGIO ,Via Carducci   27054 Montebello della Battaglia ( PV ),CAES Cons Artigiano Edile Sicilia,775000,45.0057916,9.0990233
504226,DEFINITIVO LOMBARDIA PARTE 1 MAGGIO ,Via Morgantini   20148 Milano ( MI ),CIES Costruzioni Industrializzate Edili Stradali srl,2387000,45.4700641,9.1342647
504244,DEFINITIVO EMILIA ROMAGNA MAGGIO,via Benassi  41122 Modena ( MO ),Morbio Costruzioni SpA,10000000,44.6573172,10.9279091
504281,DEFINITIVO PIEMONTE MAGGIO ,Via Umberto I  10060 Piscina ( TO ),Impregest srl,814000,44.9153292,7.4283998
504317,DEFINITIVO TRENTINO FINO A MAGGIO 2025,Via Filzi 8  38122 Trento ( TN ),Mastropasqua Costruzioni srl,2386000,46.0588017,11.1195721
504369,DEFINITIVO TRENTINO FINO A MAGGIO 2025,Via Salita dei Molini  38123 Trento ( TN ),Rs Iniziative srl,1120000,46.0460241,11.1471511
504390,DEFINITIVO TRENTINO FINO A MAGGIO 2025,Via delle Tre Croci 52  38121 Trento ( TN ),Franceschini Paolo srl,2720000,46.12672449999999,11.1152692
504423,DEFINITIVO LOMBARDIA PARTE 2 MAGGIO ,Via Paolo Uccello 22  20148 Milano ( MI ),Di Vincenzo Dino & C SpA DVC,1400000,45.4797121,9.145085800000002
504444,DEFINITIVO LOMBARDIA PARTE 1 MAGGIO ,Via Camillo Benso Conte di Cavour 55  20040 Cambiago ( MI ),SIR srl,2000000,45.5750664,9.4198074
504464,DEFINITIVO LOMBARDIA PARTE 2 MAGGIO ,Via Castellana  24050 Zanica ( BG ),Notarimpresa SpA,6000000,45.6379477,9.6772501
504493,DEFINITIVO LOMBARDIA PARTE 1 MAGGIO ,Via Solari 40  20144 Milano ( MI ),Capogruppo ATI; GiDoGi srl,7971000,45.4545063,9.1598557
504507,DEFINITIVO TRENTINO FINO A MAGGIO 2025,Via Maioliche 40  38068 Rovereto ( TN ),Bertolini Ocea Impianti srl; DEGA di Gasperini Miriam & C sas,1867000,45.8830613,11.0376815
504521,DEFINITIVO TRENTINO FINO A MAGGIO 2025,Via Claudia Augusta 87/89  39100 Bolzano ( BZ ),AP Elettrica snc di Alberto Pecoraro e C.; Capogruppo ATI; Termoidraulica Parotto Vittorino srl,1953000,46.48219049999999,11.3425006
504539,DEFINITIVO LOMBARDIA PARTE 1 MAGGIO ,Via Don Stefano Zanoni  24050 Calcinate ( BG ),F.lli Valli srl,300000,45.614815,9.8038491
504662,DEFINITIVO VENETO FINO A MAGGIO 2025,Vc. Palladio  31040 Volpago del Montello ( TV ),Costruzioni Bordignon srl; assegnato,1800000,45.740844,12.0903249
504833,DEFINITIVO LOMBARDIA PARTE 1 MAGGIO ,Via Castello 24  24064 Grumello del Monte ( BG ),Cosentino Nicola srl,431000,45.6364797,9.871649
504962,DEFINITIVO LOMBARDIA PARTE 1 MAGGIO ,Via dei Ceresini  24048 Treviolo ( BG ),Trezzo Costruzioni srl; assegnato,1280000,45.6688311,9.5875778
504965,DEFINITIVO LOMBARDIA PARTE 1 MAGGIO ,Via Dordo  24040 Bonate Sopra ( BG ),FA Costruzioni srl,2000000,45.6847697,9.5501875
504999,DEFINITIVO PIEMONTE MAGGIO ,Via Roccaforte  12089 Villanova Mondovì ( CN ),Carlotta Case srl; assegnato,500000,44.341831,7.7645778
505010,DEFINITIVO PIEMONTE MAGGIO ,Via Luigi Einaudi 26-28  12011 Borgo San Dalmazzo ( CN ),Giuggia Costruzioni srl,4500000,44.3343952,7.495040200000001
505017,DEFINITIVO LOMBARDIA PARTE 2 MAGGIO ,Via Sauro  20021 Baranzate ( MI ),Techne SpA,1971000,45.5308831,9.1148892
505048,DEFINITIVO EMILIA ROMAGNA MAGGIO,Via Autoparco  47122 Forlì ( FC ),CSC Costruzioni srl; Capogruppo ATI; Minicucci Cairo Srl,4624000,44.2323214,12.0342214
505058,DEFINITIVO LOMBARDIA PARTE 2 MAGGIO ,Via Desenzano  25087 Salò ( BS ),Kronos srl,3500000,45.5833918,10.5201201
505062,DEFINITIVO LOMBARDIA PARTE 1 MAGGIO ,Via Mar Jonio 9  20148 Milano ( MI ),Iazzetta Costruzioni srl,2343000,45.4749215,9.1373105
505067,DEFINITIVO LOMBARDIA PARTE 2 MAGGIO ,Via Santa Marta 1  20123 Milano ( MI ),Pagotto Alfredo Servizi srl,5000000,45.463473,9.1839031
505109,DEFINITIVO VENETO FINO A MAGGIO 2025,Via San Francesco  35028 Piove di Sacco ( PD ),Lasa F.lli Nata srl,2499000,45.2922868,12.0345921
505126,DEFINITIVO LOMBARDIA PARTE 1 MAGGIO ,Scalo Porta Romana  20100 Milano ( MI ),Torchio & Daghero SpA; assegnato,5000000,45.4457871,9.205964999999999
505156,DEFINITIVO PIEMONTE MAGGIO ,Via Argentera  10086 Rivarolo Canavese ( TO ),Mautino Armando & C snc,2000000,45.3164247,7.7224179
505269,DEFINITIVO LOMBARDIA PARTE 1 MAGGIO ,Via Roncaglia 8  20146 Milano ( MI ),Sercos SpA,6000000,45.4590824,9.153704099999999
505292,DEFINITIVO LIGURIA MAGGIO 2025,via Airenti  18100 Imperia ( IM ),Zanotto Marco srl,1100000,43.8804711,8.0016458
505408,DEFINITIVO LOMBARDIA PARTE 1 MAGGIO ,Via Pandina 29  26837 Mulazzano ( LO ),Gardenia srl; assegnato,2200000,45.3737777,9.3986559
505409,DEFINITIVO LOMBARDIA PARTE 2 MAGGIO ,Via Giosuè Carducci  26831 Casalmaiocco ( LO ),Gardenia srl,10000000,45.3508614,9.3754253
505490,DEFINITIVO VENETO FINO A MAGGIO 2025,Via Frattina 29  35011 Campodarsego ( PD ),Karma sas di Tommasin Claudio,450000,45.4831495,11.9169561
505510,DEFINITIVO LOMBARDIA PARTE 1 MAGGIO ,Via G. Antonini 32  20141 Milano ( MI ),IMPRECOM srl,20000000,45.436608,9.193160899999999
505539,DEFINITIVO EMILIA ROMAGNA MAGGIO,Str. Corletto Sud 237  41123 Modena ( MO ),VF Costruzioni e Restauri srl,600000,44.6248705,10.8420252
505540,DEFINITIVO EMILIA ROMAGNA MAGGIO,Via Montale  41123 Modena ( MO ),Classe Immobiliare srl,3000000,44.657412,10.9123153
505766,DEFINITIVO PIEMONTE MAGGIO ,Loc. Vivario  10081 Castellamonte ( TO ),Artedil snc di Trossello e Cesare & C; assegnato,1500000,45.3829612,7.713235099999999
505769,DEFINITIVO PIEMONTE MAGGIO ,Via Peschiera 12  10036 Settimo Torinese ( TO ),Senna Costruzioni srl,1000000,45.1324624,7.7730917
505970,DEFINITIVO LOMBARDIA PARTE 2 MAGGIO ,Via Giacomo Watt 15  20143 Milano ( MI ),Borio Mangiarotti SpA,16000000,45.44373299999999,9.1524099
506032,DEFINITIVO LOMBARDIA PARTE 1 MAGGIO ,Via Bettoni  25055 Pisogne ( BS ),Italactive srl,732000,45.806027,10.1063783
506061,DEFINITIVO VENETO FINO A MAGGIO 2025,Via Aldo Ettore Kessler  37068 Vigasio ( VR ),Toffalini Group srl,2250000,45.3198758,10.9483278
506098,DEFINITIVO VENETO FINO A MAGGIO 2025,Via Del Rosario snc  36022 Cassola ( VI ),Bicos srl,4000000,45.7507694,11.7729321
506109,DEFINITIVO LOMBARDIA PARTE 2 MAGGIO ,Fr.Cunettone  25087 Salò ( BS ),ABP Nocivelli SpA; Capogruppo ATI; LTL Labortatorio Tecnologico Lombardo srl,10617000,45.5858391,10.5196373
506187,DEFINITIVO EMILIA ROMAGNA MAGGIO,P.za Adamo Boari  44124 Ferrara ( FE ),Geo Costruzioni srl; assegnato; integrato aggiudicato,1893000,44.7231683,11.6869143
506193,DEFINITIVO VENETO FINO A MAGGIO 2025,"Via Giolitti, 1  35129 Padova ( PD )",Consorzio Stabile Artemide; assegnato,546000,45.4143361,11.915496
506324,DEFINITIVO LOMBARDIA PARTE 1 MAGGIO ,Loc. Villa Pompea 1  20051 Cassina de' Pecchi ( MI ),AMK srl,1500000,45.523431,9.3844777
506329,DEFINITIVO LOMBARDIA PARTE 1 MAGGIO ,Via San Francesco d'Assisi  20862 Arcore ( MB ),Erocra srl,750000,45.6220997,9.321362
506457,DEFINITIVO LOMBARDIA PARTE 1 MAGGIO ,Via Ludovico Ariosto  22071 Cadorago ( CO ),Guffanti SpA,3000000,45.7232048,9.0316191
506632,DEFINITIVO LIGURIA MAGGIO 2025,Via Genova 30  17100 Savona ( SV ),Dicataldo Sabino,2890000,44.3197058,8.4917926
506664,DEFINITIVO LOMBARDIA PARTE 1 MAGGIO ,Via Manzoni 142  25040 Esine ( BS ),ArCo Lavori s.coop.consortile,1052000,45.9285883,10.2485316
506721,DEFINITIVO VENETO FINO A MAGGIO 2025,Via Vittorio Emanuele 4  36076 Recoaro Terme ( VI ),Summa Costruzioni Generali srl,423000,45.7048091,11.2248868
506729,DEFINITIVO LOMBARDIA PARTE 1 MAGGIO ,V.le Cremona 201  27100 Pavia ( PV ),Costrua srl,3500000,45.1770299,9.204239
506787,DEFINITIVO EMILIA ROMAGNA MAGGIO,Via Alda Merini 2   40055 Castenaso ( BO ),Abitare Villanova srl,1050000,44.50906699999999,11.4689067
506807,DEFINITIVO LOMBARDIA PARTE 1 MAGGIO ,Via Casale  24060 Torre de' Roveri ( BG ),Gruppo Piramide SpA,10000000,45.7006984,9.7613355
506833,DEFINITIVO LOMBARDIA PARTE 1 MAGGIO ,Via Monterosa  22070 Bregnano ( CO ),Costruzioni Emmedi srl; assegnato,1000000,45.7002983,9.0567401
506874,DEFINITIVO PIEMONTE MAGGIO ,Via Passerella  28831 Baveno ( VB ),Tecno Costruzioni srl,1820000,45.9745208,8.4213918
506924,DEFINITIVO LOMBARDIA PARTE 1 MAGGIO ,Via Valleggio  22100 Como ( CO ),Impresa Edile Stampini srl,2500000,45.8012585,9.0951207
507048,DEFINITIVO LOMBARDIA PARTE 2 MAGGIO ,Via Valleambrosia  20089 Rozzano ( MI ),CMB Coop Muratori e Braccianti di Carpi srl,11500000,45.3998278,9.1544732
507069,DEFINITIVO LOMBARDIA PARTE 1 MAGGIO ,Q.re Sanpolino  25121 Brescia ( BS ),CONCOS Consorzio Costruttori Santarcangelo; Capogruppo ATI; FL Costruzioni e Autotrasporti srl; Giudici SpA,6650000,45.5163272,10.2663045
507082,DEFINITIVO LOMBARDIA PARTE 1 MAGGIO ,Via Gentile  22014 Dongo ( CO ),Quadrifoglio srl,5231000,46.1251295,9.2790333
507448,DEFINITIVO LIGURIA MAGGIO 2025,Loc. Olmo  19038 Sarzana ( SP ),L'ingegnere Costruzioni srl,6000000,44.1165129,9.9534478
507489,DEFINITIVO LOMBARDIA PARTE 2 MAGGIO ,P.za Alfieri  20100 Milano ( MI ),Impresa Percassi SpA,37500000,45.5031601,9.160323
507538,DEFINITIVO EMILIA ROMAGNA MAGGIO,V.le Di Vittorio 45  48015 Cervia ( RA ),Immobiliare GDV srl,1650000,44.2619835,12.3439125
507588,DEFINITIVO LIGURIA MAGGIO 2025,Via del Lagaccio   16134 Genova ( GE ),Cogeas srl,2342000,44.4214779,8.917835
507710,DEFINITIVO EMILIA ROMAGNA MAGGIO,Via Ca' Bianca  41057 Spilamberto ( MO ),Costruire Bio,250000,44.5180285,11.0027173
507738,DEFINITIVO PIEMONTE MAGGIO ,Via Giuseppe Zanoia 22  28100 Novara ( NO ),FIDES srl,800000,45.4384472,8.6120285
507791,DEFINITIVO LOMBARDIA PARTE 2 MAGGIO ,Via Corridoni 9  25128 Brescia ( BS ),CME Consorzio Imprenditori Edili s.coop.,1254000,45.5589331,10.2119179
507824,DEFINITIVO VENETO FINO A MAGGIO 2025,Via Giuseppe Randazzo  37045 Legnago ( VR ),Osanni srl,600000,45.1874906,11.2802033
507834,DEFINITIVO VENETO FINO A MAGGIO 2025,Via Arco di Giano  35129 Padova ( PD ),Industrie Edili SpA,80000000,45.4226426,11.9159623
508056,DEFINITIVO LOMBARDIA PARTE 2 MAGGIO ,Via Carlo Bazzi 51  20141 Milano ( MI ),Noldem SpA,4500000,45.4405661,9.1879977
508057,DEFINITIVO LOMBARDIA PARTE 2 MAGGIO ,Via Bellini 8  20122 Milano ( MI ),Pegaso srl,3000000,45.4655895,9.203814399999999
508058,DEFINITIVO LOMBARDIA PARTE 2 MAGGIO ,Via Capecelatro 6  20148 Milano ( MI ),RT Costruzioni srl,3000000,45.4682494,9.1339841
508090,DEFINITIVO LOMBARDIA PARTE 2 MAGGIO ,Via Colombo  21040 Sumirago ( VA ),SAAG srl; assegnato,1500000,45.7550759,8.7900327
508093,DEFINITIVO LOMBARDIA PARTE 1 MAGGIO ,Via Valverde  21100 Varese ( VA ),Civelli Costruzioni srl,450000,45.8359144,8.8060673
508316,DEFINITIVO TRENTINO FINO A MAGGIO 2025,Via Carlo Tonelli  38056 Levico Terme ( TN ),Spazio Positivo,200000,46.0081552,11.3064066
508330,DEFINITIVO LOMBARDIA PARTE 1 MAGGIO ,Via Monte Sabini 11  20141 Milano ( MI ),Edil BB srl,3500000,45.4295024,9.2014141
508388,DEFINITIVO LOMBARDIA PARTE 2 MAGGIO ,Via Malipiero 12  20138 Milano ( MI ),Cogeb srl,8000000,45.4535883,9.243819499999999
508533,DEFINITIVO LOMBARDIA PARTE 1 MAGGIO ,Via Regia  22020 Blevio ( CO ),Como Iniziative Immobiliari srl; assegnato,14125000,45.83595469999999,9.1010484
508557,DEFINITIVO LOMBARDIA PARTE 1 MAGGIO ,Via Molinetto  20063 Cernusco sul Naviglio ( MI ),Edilvit srl,10000000,45.5170203,9.3157787
508567,DEFINITIVO LOMBARDIA PARTE 2 MAGGIO ,Via Varesina 76  20156 Milano ( MI ),Cogeb srl,6000000,45.4982413,9.1449915
508583,DEFINITIVO LOMBARDIA PARTE 2 MAGGIO ,Loc. San Quirico  25080 Muscoline ( BS ),D'aniello Scavi e Costruzioni,2500000,45.572836,10.4829569
508641,DEFINITIVO PIEMONTE MAGGIO ,Loc. Riva Valdobbia  13021 Alagna Valsesia ( VC ),Bertini Costruzioni srl,18000000,45.8328014,7.954300900000001
508672,DEFINITIVO LOMBARDIA PARTE 1 MAGGIO ,Via Empedocle 10  20128 Milano ( MI ),Coccia Costruzioni srl,8000000,45.5191896,9.2276712
508705,DEFINITIVO VENETO FINO A MAGGIO 2025,Via Dante  36016 Thiene ( VI ),Sina Impianti srl; assegnato,611000,45.7019487,11.4782361
508986,DEFINITIVO LOMBARDIA PARTE 1 MAGGIO ,Via San Francesco 35  46019 Viadana ( MN ),MantovAgricoltura srl; aggiudicato alla società segnalata a; assegnato,808000,44.9298076,10.5270113
509063,DEFINITIVO VENETO FINO A MAGGIO 2025,"via G.Scardona, snc  45100 Rovigo ( RO )",Anna sas di Fonsato Impianti,960000,45.0777182,11.7772164
509133,DEFINITIVO EMILIA ROMAGNA MAGGIO,Via Tartarini  40057 Granarolo dell'Emilia ( BO ),Karintia srl,1200000,44.558558,11.4446689
509157,DEFINITIVO LOMBARDIA PARTE 1 MAGGIO ,Via Acerbi 34  20161 Milano ( MI ),Redal Costruzioni srl + Redal Costruzioni srl; assegnato,2500000,45.5286054,9.174547200000001
509175,DEFINITIVO LOMBARDIA PARTE 1 MAGGIO ,Via Fiuggi 38  20159 Milano ( MI ),Borio Mangiarotti SpA; assegnato,8000000,45.5028179,9.1914208
509232,DEFINITIVO EMILIA ROMAGNA MAGGIO,Via Dalmazia 85  42124 Reggio nell'Emilia ( RE ),R.Z. srl; assegnato,262000,44.6989262,10.6177845
509281,DEFINITIVO VENETO FINO A MAGGIO 2025,Via Manzoni   35020 Albignasego ( PD ),Aquarius Immobiliare srl,1200000,45.3496869,11.847716
509372,DEFINITIVO VENETO FINO A MAGGIO 2025,Via Armando Diaz 62  35031 Abano Terme ( PD ),Frizzarin Carlo srl,1500000,45.362302,11.7939847
509409,DEFINITIVO LOMBARDIA PARTE 1 MAGGIO ,Via Trasimeno 86  20128 Milano ( MI ),Soledil srl,4000000,45.51778580000001,9.250000499999999
509484,DEFINITIVO LOMBARDIA PARTE 2 MAGGIO ,Via delle Risaie  20079 Basiglio ( MI ),Gruppo Koni srl,13000000,45.3516924,9.1671433
509578,DEFINITIVO LOMBARDIA PARTE 2 MAGGIO ,Via Arriga Alta  25017 Lonato del Garda ( BS ),Capogruppo ATI; LTL Labortatorio Tecnologico Lombardo srl; Pavoni SpA,6100000,45.4558312,10.4979969
509585,DEFINITIVO LOMBARDIA PARTE 1 MAGGIO ,Via Paul Harris 11  26041 Casalmaggiore ( CR ),Impresa Edile Luzzara Romano e Figlio snc,600000,44.9891216,10.4203881
509589,DEFINITIVO LOMBARDIA PARTE 1 MAGGIO ,Via Gosa 74  25085 Gavardo ( BS ),ABP Nocivelli SpA; Capogruppo ATI; LTL Labortatorio Tecnologico Lombardo srl,8031000,45.5881525,10.4385306
509614,DEFINITIVO LOMBARDIA PARTE 1 MAGGIO ,Via Malta 42  25124 Brescia ( BS ),Mapen srl,10000000,45.5137608,10.2076647
509708,DEFINITIVO PIEMONTE MAGGIO ,C.so Grosseto 115  10147 Torino ( TO ),Consorzio Stabile Artemide,13103000,45.1040943,7.680598499999999
509710,DEFINITIVO PIEMONTE MAGGIO ,Via Brigata Cagliari  10064 Pinerolo ( TO ),Giugliano Costruzioni Metalliche srl; Mattioda Pierino & Figli SpA; Palingeo srl; SOGECO srl,7066000,44.883303,7.3198162
509720,DEFINITIVO LOMBARDIA PARTE 1 MAGGIO ,Via Ettore Ponti 47  20132 Milano ( MI ),Blu Edile srl,5000000,45.4415025,9.1530503
509737,DEFINITIVO PIEMONTE MAGGIO ,Via Spielberg 58  12037 Saluzzo ( CN ),Consorzio Nazionale Coop.Produzione Lavoro Ciro; assegnato,1482000,44.6428444,7.494488100000001
509752,DEFINITIVO LOMBARDIA PARTE 1 MAGGIO ,Via Turbada 12  23900 Lecco ( LC ),CRS Impianti e Costruzioni SpA; Capogruppo ATI; Legnotech SpA,5618000,45.8473676,9.4097622
509772,DEFINITIVO LOMBARDIA PARTE 1 MAGGIO ,Via Maffei 53  23100 Sondrio ( SO ),CFC Srl; Consorzio Artek,2423000,46.1635521,9.861752
509773,DEFINITIVO LOMBARDIA PARTE 1 MAGGIO ,Via Maffei 43  23100 Sondrio ( SO ),CFC Srl; Consorzio Artek,2704000,46.1644383,9.861815
509775,DEFINITIVO LOMBARDIA PARTE 1 MAGGIO ,Via Maffei 80   23100 Sondrio ( SO ),CFC Srl; Consorzio Artek,2859000,46.1644509,9.8607807
509913,DEFINITIVO VENETO FINO A MAGGIO 2025,Via leoncavallo 18  45026 Lendinara ( RO ),CDC Immobiliare srl,250000,45.0833234,11.5877639
510093,DEFINITIVO VENETO FINO A MAGGIO 2025,Via De Gasperi  35030 Rubano ( PD ),Tiemme Costruzioni Edili SpA,3000000,45.4307244,11.7941166
510320,DEFINITIVO LOMBARDIA PARTE 2 MAGGIO ,Fr.Beverate  23883 Brivio ( LC ),Valsecchi Costruzioni srl; assegnato,3000000,45.7380285,9.428803
510405,DEFINITIVO PIEMONTE MAGGIO ,Fr. Bauducchi  10024 Moncalieri ( TO ),Casetta Costruzioni srl; assegnato,1800000,44.9646242,7.71238
510413,DEFINITIVO LOMBARDIA PARTE 1 MAGGIO ,Via Diaz  20834 Nova Milanese ( MB ),DM Costruzioni Generali srl,6000000,45.5965608,9.1993484
510473,DEFINITIVO LOMBARDIA PARTE 1 MAGGIO ,Via Brasile  20096 Pioltello ( MI ),Vinci srl,4000000,45.4896472,9.3273851
510501,DEFINITIVO LOMBARDIA PARTE 1 MAGGIO ,Via Goldoni  25082 Botticino ( BS ),Filva Costruzioni srl,1200000,45.5228692,10.2911876
510563,DEFINITIVO LOMBARDIA PARTE 2 MAGGIO ,Via Trieste  24035 Curno ( BG ),GMG Centro Edile srl,9000000,45.6946955,9.622546
510689,DEFINITIVO EMILIA ROMAGNA MAGGIO,Navile  40122 Bologna ( BO ),G&G srl,9000000,44.499511,11.3385999
510751,DEFINITIVO EMILIA ROMAGNA MAGGIO,Via Ca' Rossa  47121 Forlì ( FC ),Valbonetti Costruzioni srl,750000,44.2012531,12.0402867
510759,DEFINITIVO LOMBARDIA PARTE 2 MAGGIO ,P.za Roma  46045 Marmirolo ( MN ),Edilgamma Costruzioni Generali srl; assegnato,1272000,45.2206047,10.7566988
510813,DEFINITIVO LOMBARDIA PARTE 1 MAGGIO ,V.le Fratelli Casiraghi 508  20099 Sesto San Giovanni ( MI ),SMV Costruzioni srl,9200000,45.5482386,9.2369992
510814,DEFINITIVO EMILIA ROMAGNA MAGGIO,Via Colombarina 2/b  40024 Castel San Pietro Terme ( BO ),Morelli 19 srl; assegnato,600000,44.4026038,11.5865719
510854,DEFINITIVO EMILIA ROMAGNA MAGGIO,Loc. Uccellino  44124 Ferrara ( FE ),Arco srl; assegnato; integrato; integrato aggiudicato all'impresa segnalata che ha indicato i,1539000,44.7915593,11.5716494
510855,DEFINITIVO EMILIA ROMAGNA MAGGIO,Via Verga 62  44124 Ferrara ( FE ),Rico Costruzioni srl; integrato; integrato aggiudicato all'impresa segnalata che ha indicato i,1287000,44.8222858,11.5990795
510891,DEFINITIVO LIGURIA MAGGIO 2025,via Corso  19033 Castelnuovo Magra ( SP ),Edilpie srl,800000,44.0759596,10.0172029
511245,DEFINITIVO LOMBARDIA PARTE 2 MAGGIO ,Via Galileo Ferraris  20021 Bollate ( MI ),Green Coop Società Cooperativa Edilizia,5800000,45.5402926,9.0945549
511329,DEFINITIVO LOMBARDIA PARTE 1 MAGGIO ,Via Parravicini 1/3  20125 Milano ( MI ),Broglio 21 srl,3500000,45.4928657,9.2093603
511343,DEFINITIVO LOMBARDIA PARTE 2 MAGGIO ,Via Salvator Allende  20060 Masate ( MI ),Replas Costruzioni srl,2400000,45.5609499,9.4570623
511389,DEFINITIVO VENETO FINO A MAGGIO 2025,Via Risorgimento  35020 Albignasego ( PD ),New Costruzioni srl,1000000,45.3369134,11.9034182
511443,DEFINITIVO LOMBARDIA PARTE 1 MAGGIO ,Via Cecina 68-70  25088 Toscolano-Maderno ( BS ),Tecnorest srl,367000,45.64901500000001,10.618094
511476,DEFINITIVO LOMBARDIA PARTE 1 MAGGIO ,Via Gosa traversa via Toresella 1  25085 Gavardo ( BS ),Gemmo SpA,627000,45.5890049,10.4401156
511562,DEFINITIVO VENETO FINO A MAGGIO 2025,Via Unità d'Italia 245  37132 Verona ( VR ),Fedrigoli Costruzioni SpA,953000,45.4323405,11.0500897
511606,DEFINITIVO LOMBARDIA PARTE 1 MAGGIO ,Via Adamello  20871 Vimercate ( MB ),Replas Costruzioni srl; assegnato,800000,45.5955621,9.372522
511610,DEFINITIVO TRENTINO FINO A MAGGIO 2025,Loc. Canova di Gardolo  38121 Trento ( TN ),Cermis srl; Trento Due srl,16000000,46.1139966,11.1764799
511807,DEFINITIVO EMILIA ROMAGNA MAGGIO,Via Vandelli  41053 Maranello ( MO ),Costruzioni Sileo snc,1800000,44.5167709,10.882619
511938,DEFINITIVO LOMBARDIA PARTE 1 MAGGIO ,Via Capecelatro  20148 Milano ( MI ),ImpreDo SpA,15000000,45.4710791,9.1301291
511946,DEFINITIVO VENETO FINO A MAGGIO 2025,Via Europa  36023 Longare ( VI ),Namira SGRpA,13000000,45.4694554,11.6096227
511968,DEFINITIVO LOMBARDIA PARTE 1 MAGGIO ,Via Soffredini 75  20126 Milano ( MI ),Luxury Restauri e Ristrutturazioni srl; Progress SpA,3000000,45.5201174,9.225367
511979,DEFINITIVO LOMBARDIA PARTE 1 MAGGIO ,Loc. Arcino  23020 Montagna in Valtellina ( SO ),CM Valtellina srl,200000,46.1785779,9.8990315
511996,DEFINITIVO LIGURIA MAGGIO 2025,via San Lazzaro  17051 Andora ( SV ),Immobiliare Quattro Edile srl,1000000,43.958195,8.1456381
512007,DEFINITIVO LOMBARDIA PARTE 1 MAGGIO ,Via San Francesco  23874 Montevecchia ( LC ),Costruzioni Riva srl,3000000,45.6953418,9.3750842
512015,DEFINITIVO EMILIA ROMAGNA MAGGIO,via Col di Lana  44042 Cento ( FE ),Tassi Group Holding srl,500000,44.7608024,11.2872967
512017,DEFINITIVO EMILIA ROMAGNA MAGGIO,Via Cornacchia  48018 Faenza ( RA ),Immobiliare Due Fonti srl,300000,44.2534501,11.8722669
512205,DEFINITIVO LOMBARDIA PARTE 1 MAGGIO ,Via Cadore  20900 Monza ( MB ),Engeco srl,15000000,45.603192,9.2565234
512231,DEFINITIVO VENETO FINO A MAGGIO 2025,Via Goffredo Mameli  37051 Bovolone ( VR ),Gruppo Outset,1500000,45.2556816,11.1285243
512261,DEFINITIVO VENETO FINO A MAGGIO 2025,Via Pascoli  37026 Pescantina ( VR ),Carli Costruzioni srl,2700000,45.4846429,10.8771656
512283,DEFINITIVO LOMBARDIA PARTE 1 MAGGIO ,Via dei Santi  25014 Castenedolo ( BS ),Global Service srl; assegnato,750000,45.4872657,10.2631112
512319,DEFINITIVO PIEMONTE MAGGIO ,Via Nobili De Toma  28017 San Maurizio d'Opaglio ( NO ),Simonotti Franco Costruzioni srl,1500000,45.7806172,8.389165
512333,DEFINITIVO LOMBARDIA PARTE 2 MAGGIO ,Via Bindellera  20861 Brugherio ( MB ),GE Homes,8000000,45.5589411,9.2996378
512387,DEFINITIVO LOMBARDIA PARTE 1 MAGGIO ,Via Isonzo 3  20095 Cusano Milanino ( MI ),Valefra srl,5000000,45.55022839999999,9.1750788
512429,DEFINITIVO VENETO FINO A MAGGIO 2025,V.le dei Patrioti 69  36012 Asiago ( VI ),COSPA srl; aggiudicato all'impresa segnalata che ha offerto il ribasso; assegnato,1287000,45.8778248,11.5126608
512643,DEFINITIVO LOMBARDIA PARTE 1 MAGGIO ,Via Montenevoso 2  20131 Milano ( MI ),Costruendo Milano srl,4000000,45.4864332,9.234951299999999
512649,DEFINITIVO EMILIA ROMAGNA MAGGIO,Loc. Milano Marittima  48015 Cervia ( RA ),Gruppo Ritmo srl,800000,44.2680664,12.3553337
512803,DEFINITIVO LOMBARDIA PARTE 1 MAGGIO ,Via Aldini 72  20157 Milano ( MI ),Cipiemme srl,1376000,45.5118332,9.131663699999999
513023,DEFINITIVO LOMBARDIA PARTE 1 MAGGIO ,Via Durando  20158 Milano ( MI ),Carron SpA,20000000,45.5052804,9.1637002
513031,DEFINITIVO EMILIA ROMAGNA MAGGIO,Via Prati    29011 Borgonovo Val Tidone ( PC ),Edilvaltidone srl,150000,45.0182209,9.4411068
513066,DEFINITIVO LOMBARDIA PARTE 2 MAGGIO ,Via Leonardo da Vinci 7  24047 Treviglio ( BG ),Impresa Costruzioni Geom Ghidelli,800000,45.5233832,9.5899291
513123,DEFINITIVO LOMBARDIA PARTE 1 MAGGIO ,Via Monti  22036 Erba ( CO ),Como Contract srl,5000000,45.8176734,9.2178014
513153,DEFINITIVO LOMBARDIA PARTE 1 MAGGIO ,Via Garibaldi 13/15  24122 Bergamo ( BG ),Cividini Ing&Co srl,1744000,45.6957305,9.6624313
513185,DEFINITIVO LOMBARDIA PARTE 1 MAGGIO ,Via Statuto 31  20833 Giussano ( MB ),Edil Brianza srl,200000,45.6750034,9.2074456
513216,DEFINITIVO LOMBARDIA PARTE 2 MAGGIO ,Via Alessandro Manzoni  27016 Lardirago ( PV ),Mido Costruzioni srl; assegnato,1400000,45.2374945,9.2355029
513250,DEFINITIVO LOMBARDIA PARTE 2 MAGGIO ,Via Bellini 5  20064 Gorgonzola ( MI ),Capogruppo ATI; Meridionale Impianti SpA,5388000,45.5345121,9.412934
513376,DEFINITIVO LOMBARDIA PARTE 1 MAGGIO ,Via Cerro Maggiore  20027 Rescaldina ( MI ),Carmar srl,1500000,45.6099608,8.9535209
513400,DEFINITIVO LOMBARDIA PARTE 2 MAGGIO ,Via Alfonso Lamarmora 10  20122 Milano ( MI ),GKSD Edile SpA; Reald srl,8000000,45.4563553,9.197919599999999
513404,DEFINITIVO LOMBARDIA PARTE 1 MAGGIO ,Via Don Silvio Marzorati 22  21047 Saronno ( VA ),Boaglio Costruzioni srl,8000000,45.6296139,9.043077499999999
513408,DEFINITIVO LOMBARDIA PARTE 1 MAGGIO ,Via Enrico Fermi  27020 Travacò Siccomario ( PV ),Holzhaus Bioedilizia srl,290000,45.1583005,9.132455
513466,DEFINITIVO LOMBARDIA PARTE 1 MAGGIO ,Via Caduti di Nassiriya  24040 Bonate Sopra ( BG ),Edilgaeni srl; assegnato,2400000,45.6847812,9.5642492
513502,DEFINITIVO LOMBARDIA PARTE 1 MAGGIO ,Via Belvedere  21035 Cunardo ( VA ),Impresa Edile Negri srl,600000,45.9381006,8.7966434
513617,DEFINITIVO LOMBARDIA PARTE 2 MAGGIO ,via Castello  24050 Cavernago ( BG ),GLG c/o Meridiana srl; assegnato,1000000,45.5939833,9.7532938
513728,DEFINITIVO LOMBARDIA PARTE 1 MAGGIO ,V.le Cimitero 2  20012 Cuggiono ( MI ),Impresa Edile Cimiteriale Faccendini Natalia srl,1065000,45.5063352,8.811515499999999
513833,DEFINITIVO LIGURIA MAGGIO 2025,Via Genova 601  19134 La Spezia ( SP ),INGINSINT  Ingegneria Insediativa Integrata SpA,2000000,44.1249406,9.7880966
513908,DEFINITIVO LOMBARDIA PARTE 2 MAGGIO ,Via Innocenta  25015 Desenzano del Garda ( BS ),Femm srl,7000000,45.4516439,10.5679336
513913,DEFINITIVO LOMBARDIA PARTE 1 MAGGIO ,Via Marangoni  20813 Bovisio-Masciago ( MB ),Artedil srl,2560000,45.6107797,9.1427863
513949,DEFINITIVO EMILIA ROMAGNA MAGGIO,Via S.Marina 35  40010 Bentivoglio ( BO ),Paolucci Costruzioni srl,1415000,44.6031573,11.4179637
513974,DEFINITIVO LOMBARDIA PARTE 2 MAGGIO ,Via Resegone  20025 Legnano ( MI ),IDC Costruzioni srl,2000000,45.604729,8.9212852
513987,DEFINITIVO EMILIA ROMAGNA MAGGIO,via Girondola  42025 Cavriago ( RE ),Donato Costruzioni srl,150000,44.6903205,10.5221538
514026,DEFINITIVO LOMBARDIA PARTE 2 MAGGIO ,"Via Sgrazzutti, 1  25036 Palazzolo sull'Oglio ( BS )",Cobar SpA - Costruzioni Barozzi; aggiudicato a seguito di; assegnato,3451000,45.5996136,9.8860701
514035,DEFINITIVO LOMBARDIA PARTE 1 MAGGIO ,P.za Donatori di Sangue  25024 Leno ( BS ),ABP Nocivelli SpA; Capogruppo ATI; LTL Labortatorio Tecnologico Lombardo srl + Pavoni SpA,17436000,45.3655235,10.2177257
514067,DEFINITIVO LOMBARDIA PARTE 1 MAGGIO ,Via Napoleona 60  22100 Como ( CO ),Multi Manutenzione srl,2109000,45.79100930000001,9.089558799999999
514069,DEFINITIVO LOMBARDIA PARTE 1 MAGGIO ,Via Domea 4  22063 Cantù ( CO ),Tecno Futura srl,414000,45.7385537,9.1403757
514086,DEFINITIVO PIEMONTE MAGGIO ,Via Verrua  10040 Osasio ( TO ),Costruttori Qualificati srl,992000,44.8703767,7.607706
514185,DEFINITIVO LOMBARDIA PARTE 1 MAGGIO ,Loc.Montecroce  25015 Desenzano del Garda ( BS ),Capogruppo ATI; Dussmann Service Italia,2309000,45.46982389999999,10.536538
514209,DEFINITIVO LOMBARDIA PARTE 1 MAGGIO ,Via Schenavoglia  20083 Gaggiano ( MI ),Attività Edilizie Bergamasche srl,5000000,45.4085413,9.0537457
514322,DEFINITIVO TRENTINO FINO A MAGGIO 2025,Via delle Piazzole 27  38123 Trento ( TN ),Postal Ivano srl,3840000,46.0151175,11.10421
514328,DEFINITIVO LOMBARDIA PARTE 2 MAGGIO ,Via Solferino 16  20900 Monza ( MB ),Capogruppo ATI; La Nuova Napoli scarl; Real Italy Cons.Stabile scarl; assegnato; integrato,6618000,45.5775973,9.266305599999999
514331,DEFINITIVO TRENTINO FINO A MAGGIO 2025,Via Torquato Taramelli 9  38122 Trento ( TN ),Debiasi Costruzioni srl,4800000,46.0617665,11.1176326
514335,DEFINITIVO PIEMONTE MAGGIO ,Via Roma  12010 Cervasca ( CN ),Effettotetto snc,1500000,44.3824118,7.468498
514360,DEFINITIVO PIEMONTE MAGGIO ,Via Vecchia di Borgo San Dalmazzo  12100 Cuneo ( CN ),ICEG snc di Gallo Giuseppe & Figli,1500000,44.3726676,7.5273589
514367,DEFINITIVO LOMBARDIA PARTE 1 MAGGIO ,Via General Cantore  46029 Suzzara ( MN ),Bottoli Costruzioni srl,6970000,44.9884001,10.7534689
514418,DEFINITIVO EMILIA ROMAGNA MAGGIO,Via Arona 4  47838 Riccione ( RN ),CEAR Consorzio Edili Artigiani Ravenna Soc.; Cavallaro Costruzioni; Impiantistica Di Sabba Lazzaro & C Srl,367000,44.0185403,12.6282058
514425,DEFINITIVO LIGURIA MAGGIO 2025,Via Torino 7  17027 Pietra Ligure ( SV ),Castiglia Costruzioni srl,3000000,44.1551047,8.2964269
514439,DEFINITIVO VENETO FINO A MAGGIO 2025,fr. Mejaniga  35010 Cadoneghe ( PD ),Furlan Costruzioni srl,2000000,45.4542321,11.9013505
514549,DEFINITIVO LOMBARDIA PARTE 2 MAGGIO ,V.le Paolo Onorato Vigliani 51  20148 Milano ( MI ),Edil-Eco srl,3000000,45.4808095,9.1460223
514754,DEFINITIVO LOMBARDIA PARTE 1 MAGGIO ,Via Plodio  25038 Rovato ( BS ),Dam sas di Pezzucchi Angelo Stefano & C; assegnato,200000,45.5760837,9.9986523
514890,DEFINITIVO VENETO FINO A MAGGIO 2025,Via Crocetta  37017 Lazise ( VR ),Laiti Costruzioni snc di Laiti Giovanni & C.; assegnato,1000000,45.503209,10.7465039
514906,DEFINITIVO VENETO FINO A MAGGIO 2025,Via Mameli snc  37060 Erbè ( VR ),Meneghelli Costruzioni Group srl,600000,45.3616852,10.9557891
515165,DEFINITIVO LOMBARDIA PARTE 1 MAGGIO ,Via Varese 16  20121 Milano ( MI ),C&f Developments Italia srl; Geotech srl,6500000,45.4800526,9.184426
515182,DEFINITIVO EMILIA ROMAGNA MAGGIO,Via Collodi 3  40024 Castel San Pietro Terme ( BO ),Romagnoli Costruzioni Edili srl,1650000,44.421295,11.520178
515185,DEFINITIVO EMILIA ROMAGNA MAGGIO,P.zza Togliatti  47035 Gambettola ( FC ),Impresa Edile Medri Renzo & C. snc,1500000,44.1063682,12.3363412
515209,DEFINITIVO LOMBARDIA PARTE 1 MAGGIO ,Via Val d'Ossola  20900 Monza ( MB ),Di Vincenzo Dino & C SpA DVC,2500000,45.5707003,9.2711496
515210,DEFINITIVO PIEMONTE MAGGIO ,Via Vercelli  13012 Borgo Vercelli ( VC ),Vesoli Francesco srl,1250000,45.3534303,8.4614247
515211,DEFINITIVO LOMBARDIA PARTE 1 MAGGIO ,Via Modigliani 14  20900 Monza ( MB ),Forberg srl,5000000,45.5833533,9.3026216
515362,DEFINITIVO LOMBARDIA PARTE 2 MAGGIO ,P.le Selinunte 6  20100 Milano ( MI ),Aircom srl; integrato,3608000,45.4724825,9.1389122
515418,DEFINITIVO EMILIA ROMAGNA MAGGIO,Via Spadari  44121 Ferrara ( FE ),Costruzioni Borelli,2000000,44.8384874,11.6170539
515524,DEFINITIVO LOMBARDIA PARTE 1 MAGGIO ,Via Passo del Mortirolo  20836 Briosco ( MB ),Euroedil srl,600000,45.7059156,9.2439544
515655,DEFINITIVO EMILIA ROMAGNA MAGGIO,V.le Certosa  40122 Bologna ( BO ),CIMS scrl Cooperativa Intersettoriale Montana,7248000,44.4983872,11.3072555
515804,DEFINITIVO VENETO FINO A MAGGIO 2025,Via Galilei 72  31029 Vittorio Veneto ( TV ),Presotto Ennio srl; aggiudicato all'impresa segnalata che ha; assegnato,348000,45.9837378,12.2998354
515946,DEFINITIVO LOMBARDIA PARTE 1 MAGGIO ,Via Papa Pio V  27058 Voghera ( PV ),Edilcosma Costruzioni srl,3000000,44.9755319,9.0035217
516187,DEFINITIVO LOMBARDIA PARTE 2 MAGGIO ,Via W.Valdi   20873 Cavenago di Brianza ( MB ),Edil Live Costruzioni srl,1500000,45.5839848,9.4222095
516226,DEFINITIVO LOMBARDIA PARTE 1 MAGGIO ,Via Comune Antico 44  20125 Milano ( MI ),Infraedil srl,3000000,45.50587489999999,9.2082297
516293,DEFINITIVO VENETO FINO A MAGGIO 2025,Via Nicolò Paganini  37060 Buttapietra ( VR ),Rino Fracca Srl,450000,45.3442787,11.0013331
516352,DEFINITIVO PIEMONTE MAGGIO ,Via San Remigio 48  10041 Carignano ( TO ),Scotta srl; Valori Consorzio Stabile scarl,2201000,44.9110131,7.678775700000001
516376,DEFINITIVO VENETO FINO A MAGGIO 2025,Loc.Pestrino  37134 Verona ( VR ),Capogruppo ATI; IFM SpA Italiana Facility Management; integrato aggiudicato alle imprese segnalate riunite,4291000,45.4174507,11.0049927
516456,DEFINITIVO LOMBARDIA PARTE 1 MAGGIO ,Via Lazzaretto 24  27020 Dorno ( PV ),Costruzioni Edili Noè srl,250000,45.1569116,8.9477882
516516,DEFINITIVO VENETO FINO A MAGGIO 2025,Via Pastrengo  31044 Montebelluna ( TV ),Manchera srl,900000,45.7726761,12.0545965
516711,DEFINITIVO EMILIA ROMAGNA MAGGIO,via Abeti 22  44022 Comacchio ( FE ),Albieri srl,600000,44.668213,12.2446034
516751,DEFINITIVO PIEMONTE MAGGIO ,Via San Paolo della Croce  28062 Cameri ( NO ),Nderjaku Ervis Impresa Edile,3500000,45.5098885,8.6664907
516762,DEFINITIVO LOMBARDIA PARTE 1 MAGGIO ,Via Adua  20063 Cernusco sul Naviglio ( MI ),Immobiliare le Serre srl,8000000,45.5321691,9.3297491
516771,DEFINITIVO LOMBARDIA PARTE 1 MAGGIO ,Via San Carlo  20010 Santo Stefano Ticino ( MI ),MAPE Costruzioni Edili srl,5500000,45.4855404,8.9195372
516910,DEFINITIVO LOMBARDIA PARTE 1 MAGGIO ,Via Carlo Cattaneo  23884 Castello di Brianza ( LC ),ICE Fumagalli srl,200000,45.7578732,9.3494502
516922,DEFINITIVO LIGURIA MAGGIO 2025,Via Libero Alborno  18039 Ventimiglia ( IM ),Impresa Edile Geom Marco Garzoglio; assegnato,700000,43.7984659,7.5568875
517078,DEFINITIVO LOMBARDIA PARTE 1 MAGGIO ,Via Segheria   25050 Temù ( BS ),Costruzioni Belometti srl; SGB srl,500000,46.2516435,10.487969
517222,DEFINITIVO LOMBARDIA PARTE 1 MAGGIO ,Via Maria Montessori  20865 Usmate Velate ( MB ),SG Costruzioni srl,1800000,45.6531041,9.3394485
517253,DEFINITIVO LOMBARDIA PARTE 1 MAGGIO ,Via Antica Regina  22014 Dongo ( CO ),Giardelli Costruzioni SpA,800000,46.1327174,9.2800083
517255,DEFINITIVO EMILIA ROMAGNA MAGGIO,via Moreali 245  41124 Modena ( MO ),Safim srl,3750000,44.6371595,10.9387389
517260,DEFINITIVO EMILIA ROMAGNA MAGGIO,Via dei Carbonari  40033 Casalecchio di Reno ( BO ),Schibuola Costruzioni srl,500000,44.4816491,11.2746966
517291,DEFINITIVO LOMBARDIA PARTE 2 MAGGIO ,Via Molise 5  20089 Rozzano ( MI ),Lindi & F.lli srl,420000,45.3890283,9.1515144
517297,DEFINITIVO EMILIA ROMAGNA MAGGIO,Via Mavora  40019 Sant'Agata Bolognese ( BO ),Scandia Costruzioni srl,900000,44.666801,11.1252383
517541,DEFINITIVO EMILIA ROMAGNA MAGGIO,Via Speranza  40068 San Lazzaro di Savena ( BO ),Gruppo Dipierri SpA,9000000,44.4755738,11.4118767
517601,DEFINITIVO TRENTINO FINO A MAGGIO 2025,Via Bellavista  38121 Trento ( TN ),Rs Iniziative srl,1280000,46.0844607,11.1281452
517610,DEFINITIVO EMILIA ROMAGNA MAGGIO,via Terracini  40131 Bologna ( BO ),Gruppo Dipierri SpA,6600000,44.5157674,11.3206699
517647,DEFINITIVO LOMBARDIA PARTE 1 MAGGIO ,Via Ravenna 14  20139 Milano ( MI ),Luxury Restauri e Ristrutturazioni srl,2000000,45.4357418,9.2184974
517651,DEFINITIVO LOMBARDIA PARTE 2 MAGGIO ,Via Gallarate 48  20151 Milano ( MI ),Vitruvius & Partners srl,7000000,45.4950777,9.1380073
517703,DEFINITIVO LOMBARDIA PARTE 1 MAGGIO ,Via Hajech 43  20129 Milano ( MI ),ME Costruzioni Generali srl,4000000,45.46608519999999,9.218321999999999
